distance,time,lat,lon,ele,speed,hr,cad,temperature,strava_index,camera.ele,camera.lon,camera.lat,camera.roll,camera.heading,camera.pitch
9.2,2023-08-02 23:43:26,23.701524,114.651909,78.43,1.39,0,0,20,2,11063.498316,114.651373,23.709,0,-1.505716,-1.570796
9.2,2023-08-02 23:43:26,23.701524,114.651909,78.43,1.39,0,0,20,2,11063.498316,114.651373,23.709,0,-1.505716,-1.570796
9.2,2023-08-02 23:43:26,23.701524,114.651909,78.43,1.39,0,0,20,2,11063.498316,114.651373,23.709,0,-1.505716,-1.570796
9.2,2023-08-02 23:43:26,23.701524,114.651909,78.43,1.39,0,0,20,2,11063.498316,114.651373,23.709,0,-1.505716,-1.570796
9.2,2023-08-02 23:43:26,23.701524,114.651909,78.43,1.39,0,0,20,2,11063.498316,114.651373,23.709,0,-1.505716,-1.570796
9.2,2023-08-02 23:43:26,23.701524,114.651909,78.43,1.39,0,0,20,2,11063.498316,114.651373,23.709,0,-1.505716,-1.570796
9.2,2023-08-02 23:43:26,23.701524,114.651909,78.43,1.39,0,0,20,2,11063.498316,114.651373,23.709,0,-1.505716,-1.570796
9.2,2023-08-02 23:43:26,23.701524,114.651909,78.43,1.39,0,0,20,2,11063.498316,114.651373,23.709,0,-1.505716,-1.570796
9.2,2023-08-02 23:43:26,23.701524,114.651909,78.43,1.39,0,0,20,2,11063.498316,114.651373,23.709,0,-1.505716,-1.570796
9.2,2023-08-02 23:43:26,23.701524,114.651909,78.43,1.39,0,0,20,2,11063.498316,114.651373,23.709,0,-1.505716,-1.570796
9.2,2023-08-02 23:43:26,23.701524,114.651909,78.43,1.39,0,0,20,2,11063.498316,114.651373,23.709,0,-1.505716,-1.570796
9.2,2023-08-02 23:43:26,23.701524,114.651909,78.43,1.39,0,0,20,2,11063.498316,114.651373,23.709,0,-1.505716,-1.570796
9.2,2023-08-02 23:43:26,23.701524,114.651909,78.43,1.39,0,0,20,2,11063.498316,114.651373,23.709,0,-1.505716,-1.570796
9.2,2023-08-02 23:43:26,23.701524,114.651909,78.43,1.39,0,0,20,2,11063.498316,114.651373,23.709,0,-1.505716,-1.570796
9.2,2023-08-02 23:43:26,23.701524,114.651909,78.43,1.39,0,0,20,2,11063.498316,114.651373,23.709,0,-1.505716,-1.570796
9.2,2023-08-02 23:43:26,23.701524,114.651909,78.43,1.39,0,0,20,2,11063.498316,114.651373,23.709,0,-1.505716,-1.570796
9.2,2023-08-02 23:43:26,23.701524,114.651909,78.43,1.39,0,0,20,2,11063.498316,114.651373,23.709,0,-1.505716,-1.570796
9.2,2023-08-02 23:43:26,23.701524,114.651909,78.43,1.39,0,0,20,2,11063.498316,114.651373,23.709,0,-1.505716,-1.570796
9.2,2023-08-02 23:43:26,23.701524,114.651909,78.43,1.39,0,0,20,2,11063.498316,114.651373,23.709,0,-1.505716,-1.570796
9.2,2023-08-02 23:43:26,23.701524,114.651909,78.43,1.39,0,0,20,2,11063.498316,114.651373,23.709,0,-1.505716,-1.570796
9.2,2023-08-02 23:43:26,23.701524,114.651909,78.43,1.39,0,0,20,2,11063.498316,114.651373,23.709,0,-1.505716,-1.570796
9.2,2023-08-02 23:43:26,23.701524,114.651909,78.43,1.39,0,0,20,2,11063.498316,114.651373,23.709,0,-1.505716,-1.570796
9.2,2023-08-02 23:43:26,23.701524,114.651909,78.43,1.39,0,0,20,2,11063.498316,114.651373,23.709,0,-1.505716,-1.570796
9.2,2023-08-02 23:43:26,23.701524,114.651909,78.43,1.39,0,0,20,2,11063.498316,114.651373,23.709,0,-1.505716,-1.570796
9.2,2023-08-02 23:43:26,23.701524,114.651909,78.43,1.39,0,0,20,2,11063.498316,114.651373,23.709,0,-1.505716,-1.570796
9.2,2023-08-02 23:43:26,23.701524,114.651909,78.43,1.39,0,0,20,2,11063.498316,114.651373,23.709,0,-1.505716,-1.570796
9.2,2023-08-02 23:43:26,23.701524,114.651909,78.43,1.39,0,0,20,2,11063.498316,114.651373,23.709,0,-1.505716,-1.570796
9.2,2023-08-02 23:43:26,23.701524,114.651909,78.43,1.39,0,0,20,2,11063.498316,114.651373,23.709,0,-1.505716,-1.570796
9.2,2023-08-02 23:43:26,23.701524,114.651909,78.43,1.39,0,0,20,2,11063.498316,114.651373,23.709,0,-1.505716,-1.570796
9.2,2023-08-02 23:43:26,23.701524,114.651909,78.43,1.39,0,0,20,2,11063.498316,114.651373,23.709,0,-1.505716,-1.570796
9.2,2023-08-02 23:43:26,23.701524,114.651909,78.43,1.39,0,0,20,2,11063.498316,114.651373,23.709,0,-1.505716,-1.570796
9.2,2023-08-02 23:43:26,23.701524,114.651909,78.43,1.39,0,0,20,2,11063.498316,114.651373,23.709,0,-1.505716,-1.570796
9.2,2023-08-02 23:43:26,23.701524,114.651909,78.43,1.39,0,0,20,2,11063.498316,114.651373,23.709,0,-1.505716,-1.570796
9.2,2023-08-02 23:43:26,23.701524,114.651909,78.43,1.39,0,0,20,2,11063.498316,114.651373,23.709,0,-1.505716,-1.570796
9.2,2023-08-02 23:43:26,23.701524,114.651909,78.43,1.39,0,0,20,2,11063.498316,114.651373,23.709,0,-1.505716,-1.570796
9.2,2023-08-02 23:43:26,23.701524,114.651909,78.43,1.39,0,0,20,2,11063.498316,114.651373,23.709,0,-1.505716,-1.570796
9.2,2023-08-02 23:43:26,23.701524,114.651909,78.43,1.39,0,0,20,2,11063.498316,114.651373,23.709,0,-1.505716,-1.570796
9.2,2023-08-02 23:43:26,23.701524,114.651909,78.43,1.39,0,0,20,2,11063.498316,114.651373,23.709,0,-1.505716,-1.570796
9.2,2023-08-02 23:43:26,23.701524,114.651909,78.43,1.39,0,0,20,2,11063.498316,114.651373,23.709,0,-1.505716,-1.570796
9.2,2023-08-02 23:43:26,23.701524,114.651909,78.43,1.39,0,0,20,2,11063.498316,114.651373,23.709,0,-1.505716,-1.570796
9.2,2023-08-02 23:43:26,23.701524,114.651909,78.43,1.39,0,0,20,2,11063.498316,114.651373,23.709,0,-1.505716,-1.570796
9.2,2023-08-02 23:43:26,23.701524,114.651909,78.43,1.39,0,0,20,2,11063.498316,114.651373,23.709,0,-1.505716,-1.570796
9.2,2023-08-02 23:43:26,23.701524,114.651909,78.43,1.39,0,0,20,2,11063.498316,114.651373,23.709,0,-1.505716,-1.570796
9.2,2023-08-02 23:43:26,23.701524,114.651909,78.43,1.39,0,0,20,2,11063.498316,114.651373,23.709,0,-1.505716,-1.570796
9.2,2023-08-02 23:43:26,23.701524,114.651909,78.43,1.39,0,0,20,2,11063.498316,114.651373,23.709,0,-1.505716,-1.570796
9.2,2023-08-02 23:43:26,23.701524,114.651909,78.43,1.39,0,0,20,2,11063.498316,114.651373,23.709,0,-1.505716,-1.570796
9.2,2023-08-02 23:43:26,23.701524,114.651909,78.43,1.39,0,0,20,2,11063.498316,114.651373,23.709,0,-1.505716,-1.570796
9.2,2023-08-02 23:43:26,23.701524,114.651909,78.43,1.39,0,0,20,2,11063.498316,114.651373,23.709,0,-1.505716,-1.570796
9.2,2023-08-02 23:43:26,23.701524,114.651909,78.43,1.39,0,0,20,2,11063.498316,114.651373,23.709,0,-1.505716,-1.570796
9.2,2023-08-02 23:43:26,23.701524,114.651909,78.43,1.39,0,0,20,2,11063.498316,114.651373,23.709,0,-1.505716,-1.570796
9.2,2023-08-02 23:43:26,23.701524,114.651909,78.43,1.39,0,0,20,2,11063.498316,114.651373,23.709,0,-1.505716,-1.570796
9.2,2023-08-02 23:43:26,23.701524,114.651909,78.43,1.39,0,0,20,2,11063.498316,114.651373,23.709,0,-1.505716,-1.570796
9.2,2023-08-02 23:43:26,23.701524,114.651909,78.43,1.39,0,0,20,2,11063.498316,114.651373,23.709,0,-1.505716,-1.570796
9.2,2023-08-02 23:43:26,23.701524,114.651909,78.43,1.39,0,0,20,2,11063.498316,114.651373,23.709,0,-1.505716,-1.570796
9.2,2023-08-02 23:43:26,23.701524,114.651909,78.43,1.39,0,0,20,2,11063.498316,114.651373,23.709,0,-1.505716,-1.570796
9.2,2023-08-02 23:43:26,23.701524,114.651909,78.43,1.39,0,0,20,2,11063.498316,114.651373,23.709,0,-1.505716,-1.570796
9.2,2023-08-02 23:43:26,23.701524,114.651909,78.43,1.39,0,0,20,2,11063.498316,114.651373,23.709,0,-1.505716,-1.570796
9.2,2023-08-02 23:43:26,23.701524,114.651909,78.43,1.39,0,0,20,2,11063.498316,114.651373,23.709,0,-1.505716,-1.570796
9.2,2023-08-02 23:43:26,23.701524,114.651909,78.43,1.39,0,0,20,2,11063.498316,114.651373,23.709,0,-1.505716,-1.570796
9.2,2023-08-02 23:43:26,23.701524,114.651909,78.43,1.39,0,0,20,2,11063.498316,114.651373,23.709,0,-1.505716,-1.570796
9.2,2023-08-02 23:43:26,23.701524,114.651909,78.43,1.39,0,0,20,2,11063.498316,114.651373,23.709,0,-1.505716,-1.570796
9.2,2023-08-02 23:43:26,23.701524,114.651909,78.43,1.39,0,0,20,2,11063.498316,114.651373,23.709,0,-1.505716,-1.570796
9.2,2023-08-02 23:43:26,23.701524,114.651909,78.43,1.39,0,0,20,2,11063.498316,114.651373,23.709,0,-1.505716,-1.570796
9.2,2023-08-02 23:43:26,23.701524,114.651909,78.43,1.39,0,0,20,2,11063.498316,114.651373,23.709,0,-1.505716,-1.570796
9.2,2023-08-02 23:43:26,23.701524,114.651909,78.43,1.39,0,0,20,2,11063.498316,114.651373,23.709,0,-1.505716,-1.570796
9.2,2023-08-02 23:43:26,23.701524,114.651909,78.43,1.39,0,0,20,2,11063.498316,114.651373,23.709,0,-1.505716,-1.570796
9.2,2023-08-02 23:43:26,23.701524,114.651909,78.43,1.39,0,0,20,2,11063.498316,114.651373,23.709,0,-1.505716,-1.570796
9.2,2023-08-02 23:43:26,23.701524,114.651909,78.43,1.39,0,0,20,2,11063.498316,114.651373,23.709,0,-1.505716,-1.570796
9.2,2023-08-02 23:43:26,23.701524,114.651909,78.43,1.39,0,0,20,2,11063.498316,114.651373,23.709,0,-1.505716,-1.570796
9.2,2023-08-02 23:43:26,23.701524,114.651909,78.43,1.39,0,0,20,2,11063.498316,114.651373,23.709,0,-1.505716,-1.570796
9.2,2023-08-02 23:43:26,23.701524,114.651909,78.43,1.39,0,0,20,2,11063.498316,114.651373,23.709,0,-1.505716,-1.570796
9.2,2023-08-02 23:43:26,23.701524,114.651909,78.43,1.39,0,0,20,2,11063.498316,114.651373,23.709,0,-1.505716,-1.570796
9.2,2023-08-02 23:43:26,23.701524,114.651909,78.43,1.39,0,0,20,2,11063.498316,114.651373,23.709,0,-1.505716,-1.570796
9.2,2023-08-02 23:43:26,23.701524,114.651909,78.43,1.39,0,0,20,2,11063.498316,114.651373,23.709,0,-1.505716,-1.570796
9.2,2023-08-02 23:43:26,23.701524,114.651909,78.43,1.39,0,0,20,2,11063.498316,114.651373,23.709,0,-1.505716,-1.570796
9.2,2023-08-02 23:43:26,23.701524,114.651909,78.43,1.39,0,0,20,2,11063.498316,114.651373,23.709,0,-1.505716,-1.570796
9.2,2023-08-02 23:43:26,23.701524,114.651909,78.43,1.39,0,0,20,2,11063.498316,114.651373,23.709,0,-1.505716,-1.570796
9.2,2023-08-02 23:43:26,23.701524,114.651909,78.43,1.39,0,0,20,2,11063.498316,114.651373,23.709,0,-1.505716,-1.570796
9.2,2023-08-02 23:43:26,23.701524,114.651909,78.43,1.39,0,0,20,2,11063.498316,114.651373,23.709,0,-1.505716,-1.570796
9.2,2023-08-02 23:43:26,23.701524,114.651909,78.43,1.39,0,0,20,2,11063.498316,114.651373,23.709,0,-1.505716,-1.570796
9.2,2023-08-02 23:43:26,23.701524,114.651909,78.43,1.39,0,0,20,2,11063.498316,114.651373,23.709,0,-1.505716,-1.570796
9.2,2023-08-02 23:43:26,23.701524,114.651909,78.43,1.39,0,0,20,2,11063.498316,114.651373,23.709,0,-1.505716,-1.570796
9.2,2023-08-02 23:43:26,23.701524,114.651909,78.43,1.39,0,0,20,2,11063.498316,114.651373,23.709,0,-1.505716,-1.570796
9.2,2023-08-02 23:43:26,23.701524,114.651909,78.43,1.39,0,0,20,2,11063.498316,114.651373,23.709,0,-1.505716,-1.570796
9.2,2023-08-02 23:43:26,23.701524,114.651909,78.43,1.39,0,0,20,2,11063.498316,114.651373,23.709,0,-1.505716,-1.570796
9.2,2023-08-02 23:43:26,23.701524,114.651909,78.43,1.39,0,0,20,2,11063.498316,114.651373,23.709,0,-1.505716,-1.570796
9.2,2023-08-02 23:43:26,23.701524,114.651909,78.43,1.39,0,0,20,2,11063.498316,114.651373,23.709,0,-1.505716,-1.570796
9.2,2023-08-02 23:43:26,23.701524,114.651909,78.43,1.39,0,0,20,2,11063.498316,114.651373,23.709,0,-1.505716,-1.570796
9.2,2023-08-02 23:43:26,23.701524,114.651909,78.43,1.39,0,0,20,2,11063.498316,114.651373,23.709,0,-1.505716,-1.570796
9.2,2023-08-02 23:43:26,23.701524,114.651909,78.43,1.39,0,0,20,2,11063.498316,114.651373,23.709,0,-1.505716,-1.570796
9.2,2023-08-02 23:43:26,23.701524,114.651909,78.43,1.39,0,0,20,2,11063.498316,114.651373,23.709,0,-1.505716,-1.570796
9.2,2023-08-02 23:43:26,23.701524,114.651909,78.43,1.39,0,0,20,2,11063.498316,114.651373,23.709,0,-1.505716,-1.570796
9.2,2023-08-02 23:43:26,23.701524,114.651909,78.43,1.39,0,0,20,2,11063.498316,114.651373,23.709,0,-1.505716,-1.570796
9.2,2023-08-02 23:43:26,23.701524,114.651909,78.43,1.39,0,0,20,2,11063.498316,114.651373,23.709,0,-1.505716,-1.570796
9.2,2023-08-02 23:43:26,23.701524,114.651909,78.43,1.39,0,0,20,2,11063.498316,114.651373,23.709,0,-1.505716,-1.570796
9.2,2023-08-02 23:43:26,23.701524,114.651909,78.43,1.39,0,0,20,2,11063.498316,114.651373,23.709,0,-1.505716,-1.570796
9.2,2023-08-02 23:43:26,23.701524,114.651909,78.43,1.39,0,0,20,2,11063.498316,114.651373,23.709,0,-1.505716,-1.570796
9.2,2023-08-02 23:43:26,23.701524,114.651909,78.43,1.39,0,0,20,2,11063.498316,114.651373,23.709,0,-1.505716,-1.570796
9.2,2023-08-02 23:43:26,23.701524,114.651909,78.43,1.39,0,0,20,2,11063.498316,114.651373,23.709,0,-1.505716,-1.570796
9.2,2023-08-02 23:43:26,23.701524,114.651909,78.43,1.39,0,0,20,2,11063.498316,114.651373,23.709,0,-1.505716,-1.570796
9.2,2023-08-02 23:43:26,23.701524,114.651909,78.43,1.39,0,0,20,2,11063.498316,114.651373,23.709,0,-1.505716,-1.570796
9.2,2023-08-02 23:43:26,23.701524,114.651909,78.43,1.39,0,0,20,2,11063.498316,114.651373,23.709,0,-1.505716,-1.570796
9.2,2023-08-02 23:43:26,23.701524,114.651909,78.43,1.39,0,0,20,2,11063.498316,114.651373,23.709,0,-1.505716,-1.570796
9.2,2023-08-02 23:43:26,23.701524,114.651909,78.43,1.39,0,0,20,2,11063.498316,114.651373,23.709,0,-1.505716,-1.570796
9.2,2023-08-02 23:43:26,23.701524,114.651909,78.43,1.39,0,0,20,2,11063.498316,114.651373,23.709,0,-1.505716,-1.570796
9.2,2023-08-02 23:43:26,23.701524,114.651909,78.43,1.39,0,0,20,2,11063.498316,114.651373,23.709,0,-1.505716,-1.570796
9.2,2023-08-02 23:43:26,23.701524,114.651909,78.43,1.39,0,0,20,2,11063.498316,114.651373,23.709,0,-1.505716,-1.570796
9.2,2023-08-02 23:43:26,23.701524,114.651909,78.43,1.39,0,0,20,2,11063.498316,114.651373,23.709,0,-1.505716,-1.570796
9.2,2023-08-02 23:43:26,23.701524,114.651909,78.43,1.39,0,0,20,2,11063.498316,114.651373,23.709,0,-1.505716,-1.570796
9.2,2023-08-02 23:43:26,23.701524,114.651909,78.43,1.39,0,0,20,2,11063.498316,114.651373,23.709,0,-1.505716,-1.570796
9.2,2023-08-02 23:43:26,23.701524,114.651909,78.43,1.39,0,0,20,2,11063.498316,114.651373,23.709,0,-1.505716,-1.570796
9.2,2023-08-02 23:43:26,23.701524,114.651909,78.43,1.39,0,0,20,2,11063.498316,114.651373,23.709,0,-1.505716,-1.570796
9.2,2023-08-02 23:43:26,23.701524,114.651909,78.43,1.39,0,0,20,2,11063.498316,114.651373,23.709,0,-1.505716,-1.570796
9.2,2023-08-02 23:43:26,23.701524,114.651909,78.43,1.39,0,0,20,2,11063.498316,114.651373,23.709,0,-1.505716,-1.570796
9.2,2023-08-02 23:43:26,23.701524,114.651909,78.43,1.39,0,0,20,2,11063.498316,114.651373,23.709,0,-1.505716,-1.570796
9.2,2023-08-02 23:43:26,23.701524,114.651909,78.43,1.39,0,0,20,2,11063.498316,114.651373,23.709,0,-1.505716,-1.570796
9.2,2023-08-02 23:43:26,23.701524,114.651909,78.43,1.39,0,0,20,2,11063.498316,114.651373,23.709,0,-1.505716,-1.570796
9.2,2023-08-02 23:43:26,23.701524,114.651909,78.43,1.39,0,0,20,2,11063.498316,114.651373,23.709,0,-1.505716,-1.570796
9.2,2023-08-02 23:43:26,23.701524,114.651909,78.43,1.39,0,0,20,2,11063.498316,114.651373,23.709,0,-1.505716,-1.570796
9.2,2023-08-02 23:43:26,23.701524,114.651909,78.43,1.39,0,0,20,2,11063.498316,114.651373,23.709,0,-1.505716,-1.570796
9.2,2023-08-02 23:43:26,23.701524,114.651909,78.43,1.39,0,0,20,2,11063.498316,114.651373,23.709,0,-1.505716,-1.570796
9.2,2023-08-02 23:43:26,23.701524,114.651909,78.43,1.39,0,0,20,2,11063.498316,114.651373,23.709,0,-1.505716,-1.570796
9.2,2023-08-02 23:43:26,23.701524,114.651909,78.43,1.39,0,0,20,2,11063.498316,114.651373,23.709,0,-1.505716,-1.570796
9.2,2023-08-02 23:43:26,23.701524,114.651909,78.43,1.39,0,0,20,2,11063.498316,114.651373,23.709,0,-1.505716,-1.570796
9.2,2023-08-02 23:43:26,23.701524,114.651909,78.43,1.39,0,0,20,2,11063.498316,114.651373,23.709,0,-1.505716,-1.570796
9.2,2023-08-02 23:43:26,23.701524,114.651909,78.43,1.39,0,0,20,2,11063.498316,114.651373,23.709,0,-1.505716,-1.570796
9.2,2023-08-02 23:43:26,23.701524,114.651909,78.43,1.39,0,0,20,2,11063.498316,114.651373,23.709,0,-1.505716,-1.570796
9.2,2023-08-02 23:43:26,23.701524,114.651909,78.43,1.39,0,0,20,2,11063.498316,114.651373,23.709,0,-1.505716,-1.570796
9.2,2023-08-02 23:43:26,23.701524,114.651909,78.43,1.39,0,0,20,2,11063.498316,114.651373,23.709,0,-1.505716,-1.570796
9.2,2023-08-02 23:43:26,23.701524,114.651909,78.43,1.39,0,0,20,2,11063.498316,114.651373,23.709,0,-1.505716,-1.570796
9.2,2023-08-02 23:43:26,23.701524,114.651909,78.43,1.39,0,0,20,2,11063.498316,114.651373,23.709,0,-1.505716,-1.570796
9.2,2023-08-02 23:43:26,23.701524,114.651909,78.43,1.39,0,0,20,2,11063.498316,114.651373,23.709,0,-1.505716,-1.570796
9.2,2023-08-02 23:43:26,23.701524,114.651909,78.43,1.39,0,0,20,2,11063.498316,114.651373,23.709,0,-1.505716,-1.570796
9.2,2023-08-02 23:43:26,23.701524,114.651909,78.43,1.39,0,0,20,2,11063.498316,114.651373,23.709,0,-1.505716,-1.570796
9.2,2023-08-02 23:43:26,23.701524,114.651909,78.43,1.39,0,0,20,2,11063.498316,114.651373,23.709,0,-1.505716,-1.570796
9.2,2023-08-02 23:43:26,23.701524,114.651909,78.43,1.39,0,0,20,2,11063.498316,114.651373,23.709,0,-1.505716,-1.570796
9.2,2023-08-02 23:43:26,23.701524,114.651909,78.43,1.39,0,0,20,2,11063.498316,114.651373,23.709,0,-1.505716,-1.570796
9.2,2023-08-02 23:43:26,23.701524,114.651909,78.43,1.39,0,0,20,2,11063.498316,114.651373,23.709,0,-1.505716,-1.570796
9.2,2023-08-02 23:43:26,23.701524,114.651909,78.43,1.39,0,0,20,2,11063.498316,114.651373,23.709,0,-1.505716,-1.570796
9.2,2023-08-02 23:43:26,23.701524,114.651909,78.43,1.39,0,0,20,2,11063.498316,114.651373,23.709,0,-1.505716,-1.570796
9.2,2023-08-02 23:43:26,23.701524,114.651909,78.43,1.39,0,0,20,2,11063.498316,114.651373,23.709,0,-1.505716,-1.570796
9.2,2023-08-02 23:43:26,23.701524,114.651909,78.43,1.39,0,0,20,2,11063.498316,114.651373,23.709,0,-1.505716,-1.570796
9.2,2023-08-02 23:43:26,23.701524,114.651909,78.43,1.39,0,0,20,2,11063.498316,114.651373,23.709,0,-1.505716,-1.570796
9.2,2023-08-02 23:43:26,23.701524,114.651909,78.43,1.39,0,0,20,2,11063.498316,114.651373,23.709,0,-1.505716,-1.570796
9.2,2023-08-02 23:43:26,23.701524,114.651909,78.43,1.39,0,0,20,2,11063.498316,114.651373,23.709,0,-1.505716,-1.570796
9.2,2023-08-02 23:43:26,23.701524,114.651909,78.43,1.39,0,0,20,2,11063.498316,114.651373,23.709,0,-1.505716,-1.570796
9.2,2023-08-02 23:43:26,23.701524,114.651909,78.43,1.39,0,0,20,2,11063.498316,114.651373,23.709,0,-1.505716,-1.570796
9.2,2023-08-02 23:43:26,23.701524,114.651909,78.43,1.39,0,0,20,2,11063.498316,114.651373,23.709,0,-1.505716,-1.570796
9.2,2023-08-02 23:43:26,23.701524,114.651909,78.43,1.39,0,0,20,2,11063.498316,114.651373,23.709,0,-1.505716,-1.570796
9.2,2023-08-02 23:43:26,23.701524,114.651909,78.43,1.39,0,0,20,2,11063.498316,114.651373,23.709,0,-1.505716,-1.570796
9.2,2023-08-02 23:43:26,23.701524,114.651909,78.43,1.39,0,0,20,2,11063.498316,114.651373,23.709,0,-1.505716,-1.570796
9.2,2023-08-02 23:43:26,23.701524,114.651909,78.43,1.39,0,0,20,2,11063.498316,114.651373,23.709,0,-1.505716,-1.570796
9.2,2023-08-02 23:43:26,23.701524,114.651909,78.43,1.39,0,0,20,2,11063.498316,114.651373,23.709,0,-1.505716,-1.570796
9.2,2023-08-02 23:43:26,23.701524,114.651909,78.43,1.39,0,0,20,2,11063.498316,114.651373,23.709,0,-1.505716,-1.570796
9.2,2023-08-02 23:43:26,23.701524,114.651909,78.43,1.39,0,0,20,2,11063.498316,114.651373,23.709,0,-1.505716,-1.570796
9.2,2023-08-02 23:43:26,23.701524,114.651909,78.43,1.39,0,0,20,2,11063.498316,114.651373,23.709,0,-1.505716,-1.570796
9.2,2023-08-02 23:43:26,23.701524,114.651909,78.43,1.39,0,0,20,2,11063.498316,114.651373,23.709,0,-1.505716,-1.570796
9.2,2023-08-02 23:43:26,23.701524,114.651909,78.43,1.39,0,0,20,2,11063.498316,114.651373,23.709,0,-1.505716,-1.570796
9.2,2023-08-02 23:43:26,23.701524,114.651909,78.43,1.39,0,0,20,2,11063.498316,114.651373,23.709,0,-1.505716,-1.570796
9.2,2023-08-02 23:43:26,23.701524,114.651909,78.43,1.39,0,0,20,2,11063.498316,114.651373,23.709,0,-1.505716,-1.570796
9.2,2023-08-02 23:43:26,23.701524,114.651909,78.43,1.39,0,0,20,2,11063.498316,114.651373,23.709,0,-1.505716,-1.570796
9.2,2023-08-02 23:43:26,23.701524,114.651909,78.43,1.39,0,0,20,2,11063.498316,114.651373,23.709,0,-1.505716,-1.570796
9.2,2023-08-02 23:43:26,23.701524,114.651909,78.43,1.39,0,0,20,2,11063.498316,114.651373,23.709,0,-1.505716,-1.570796
9.2,2023-08-02 23:43:26,23.701524,114.651909,78.43,1.39,0,0,20,2,11063.498316,114.651373,23.709,0,-1.505716,-1.570796
9.2,2023-08-02 23:43:26,23.701524,114.651909,78.43,1.39,0,0,20,2,11063.498316,114.651373,23.709,0,-1.505716,-1.570796
9.2,2023-08-02 23:43:26,23.701524,114.651909,78.43,1.39,0,0,20,2,11063.498316,114.651373,23.709,0,-1.505716,-1.570796
9.2,2023-08-02 23:43:26,23.701524,114.651909,78.43,1.39,0,0,20,2,11063.498316,114.651373,23.709,0,-1.505716,-1.570796
9.2,2023-08-02 23:43:26,23.701524,114.651909,78.43,1.39,0,0,20,2,11063.498316,114.651373,23.709,0,-1.505716,-1.570796
9.2,2023-08-02 23:43:26,23.701524,114.651909,78.43,1.39,0,0,20,2,11063.498316,114.651373,23.709,0,-1.505716,-1.570796
9.2,2023-08-02 23:43:26,23.701524,114.651909,78.43,1.39,0,0,20,2,11063.498316,114.651373,23.709,0,-1.505716,-1.570796
9.2,2023-08-02 23:43:26,23.701524,114.651909,78.43,1.39,0,0,20,2,11063.498316,114.651373,23.709,0,-1.505716,-1.570796
9.2,2023-08-02 23:43:26,23.701524,114.651909,78.43,1.39,0,0,20,2,11063.498316,114.651373,23.709,0,-1.505716,-1.570796
9.2,2023-08-02 23:43:26,23.701524,114.651909,78.43,1.39,0,0,20,2,11063.498316,114.651373,23.709,0,-1.505716,-1.570796
9.2,2023-08-02 23:43:26,23.701524,114.651909,78.43,1.39,0,0,20,2,11063.498316,114.651373,23.709,0,-1.505716,-1.570796
9.2,2023-08-02 23:43:26,23.701524,114.651909,78.43,1.39,0,0,20,2,11063.498316,114.651373,23.709,0,-1.505716,-1.570796
9.2,2023-08-02 23:43:26,23.701524,114.651909,78.43,1.39,0,0,20,2,11063.498316,114.651373,23.709,0,-1.505716,-1.570796
9.2,2023-08-02 23:43:26,23.701524,114.651909,78.43,1.39,0,0,20,2,11063.498316,114.651373,23.709,0,-1.505716,-1.570796
9.2,2023-08-02 23:43:26,23.701524,114.651909,78.43,1.39,0,0,20,2,11063.498316,114.651373,23.709,0,-1.505716,-1.570796
9.2,2023-08-02 23:43:26,23.701524,114.651909,78.43,1.39,0,0,20,2,11063.498316,114.651373,23.709,0,-1.505716,-1.570796
9.2,2023-08-02 23:43:26,23.701524,114.651909,78.43,1.39,0,0,20,2,11063.498316,114.651373,23.709,0,-1.505716,-1.570796
9.2,2023-08-02 23:43:26,23.701524,114.651909,78.43,1.39,0,0,20,2,11063.498316,114.651373,23.709,0,-1.505716,-1.570796
9.2,2023-08-02 23:43:26,23.701524,114.651909,78.43,1.39,0,0,20,2,11063.498316,114.651373,23.709,0,-1.505716,-1.570796
9.2,2023-08-02 23:43:26,23.701524,114.651909,78.43,1.39,0,0,20,2,11063.498316,114.651373,23.709,0,-1.505716,-1.570796
9.2,2023-08-02 23:43:26,23.701524,114.651909,78.43,1.39,0,0,20,2,11063.498316,114.651373,23.709,0,-1.505716,-1.570796
9.2,2023-08-02 23:43:26,23.701524,114.651909,78.43,1.39,0,0,20,2,11063.498316,114.651373,23.709,0,-1.505716,-1.570796
9.2,2023-08-02 23:43:26,23.701524,114.651909,78.43,1.39,0,0,20,2,11063.498316,114.651373,23.709,0,-1.505716,-1.570796
9.2,2023-08-02 23:43:26,23.701524,114.651909,78.43,1.39,0,0,20,2,11063.498316,114.651373,23.709,0,-1.505716,-1.570796
9.2,2023-08-02 23:43:26,23.701524,114.651909,78.43,1.39,0,0,20,2,11063.498316,114.651373,23.709,0,-1.505716,-1.570796
9.2,2023-08-02 23:43:26,23.701524,114.651909,78.43,1.39,0,0,20,2,11063.498316,114.651373,23.709,0,-1.505716,-1.570796
9.2,2023-08-02 23:43:26,23.701524,114.651909,78.43,1.39,0,0,20,2,11063.498316,114.651373,23.709,0,-1.505716,-1.570796
9.2,2023-08-02 23:43:26,23.701524,114.651909,78.43,1.39,0,0,20,2,11063.498316,114.651373,23.709,0,-1.505716,-1.570796
9.2,2023-08-02 23:43:26,23.701524,114.651909,78.43,1.39,0,0,20,2,11063.498316,114.651373,23.709,0,-1.505716,-1.570796
9.2,2023-08-02 23:43:26,23.701524,114.651909,78.43,1.39,0,0,20,2,11063.498316,114.651373,23.709,0,-1.505716,-1.570796
9.2,2023-08-02 23:43:26,23.701524,114.651909,78.43,1.39,0,0,20,2,11063.498316,114.651373,23.709,0,-1.505716,-1.570796
9.2,2023-08-02 23:43:26,23.701524,114.651909,78.43,1.39,0,0,20,2,11063.498316,114.651373,23.709,0,-1.505716,-1.570796
9.2,2023-08-02 23:43:26,23.701524,114.651909,78.43,1.39,0,0,20,2,11063.498316,114.651373,23.709,0,-1.505716,-1.570796
9.2,2023-08-02 23:43:26,23.701524,114.651909,78.43,1.39,0,0,20,2,11063.498316,114.651373,23.709,0,-1.505716,-1.570796
9.2,2023-08-02 23:43:26,23.701524,114.651909,78.43,1.39,0,0,20,2,11063.498316,114.651373,23.709,0,-1.505716,-1.570796
9.2,2023-08-02 23:43:26,23.701524,114.651909,78.43,1.39,0,0,20,2,11063.498316,114.651373,23.709,0,-1.505716,-1.570796
9.2,2023-08-02 23:43:26,23.701524,114.651909,78.43,1.39,0,0,20,2,11063.498316,114.651373,23.709,0,-1.505716,-1.570796
9.2,2023-08-02 23:43:26,23.701524,114.651909,78.43,1.39,0,0,20,2,11063.498316,114.651373,23.709,0,-1.505716,-1.570796
9.2,2023-08-02 23:43:26,23.701524,114.651909,78.43,1.39,0,0,20,2,11063.498316,114.651373,23.709,0,-1.505716,-1.570796
9.2,2023-08-02 23:43:26,23.701524,114.651909,78.43,1.39,0,0,20,2,11063.498316,114.651373,23.709,0,-1.505716,-1.570796
9.2,2023-08-02 23:43:26,23.701524,114.651909,78.43,1.39,0,0,20,2,11063.498316,114.651373,23.709,0,-1.505716,-1.570796
9.2,2023-08-02 23:43:26,23.701524,114.651909,78.43,1.39,0,0,20,2,11063.498316,114.651373,23.709,0,-1.505716,-1.570796
9.2,2023-08-02 23:43:26,23.701524,114.651909,78.43,1.39,0,0,20,2,11063.498316,114.651373,23.709,0,-1.505716,-1.570796
9.2,2023-08-02 23:43:26,23.701524,114.651909,78.43,1.39,0,0,20,2,11063.498316,114.651373,23.709,0,-1.505716,-1.570796
9.2,2023-08-02 23:43:26,23.701524,114.651909,78.43,1.39,0,0,20,2,11063.498316,114.651373,23.709,0,-1.505716,-1.570796
9.2,2023-08-02 23:43:26,23.701524,114.651909,78.43,1.39,0,0,20,2,11063.498316,114.651373,23.709,0,-1.505716,-1.570796
9.2,2023-08-02 23:43:26,23.701524,114.651909,78.43,1.39,0,0,20,2,11063.498316,114.651373,23.709,0,-1.505716,-1.570796
9.2,2023-08-02 23:43:26,23.701524,114.651909,78.43,1.39,0,0,20,2,11063.498316,114.651373,23.709,0,-1.505716,-1.570796
9.2,2023-08-02 23:43:26,23.701524,114.651909,78.43,1.39,0,0,20,2,11063.498316,114.651373,23.709,0,-1.505716,-1.570796
9.2,2023-08-02 23:43:26,23.701524,114.651909,78.43,1.39,0,0,20,2,11063.498316,114.651373,23.709,0,-1.505716,-1.570796
9.2,2023-08-02 23:43:26,23.701524,114.651909,78.43,1.39,0,0,20,2,11063.498316,114.651373,23.709,0,-1.505716,-1.570796
9.2,2023-08-02 23:43:26,23.701524,114.651909,78.43,1.39,0,0,20,2,11063.498316,114.651373,23.709,0,-1.505716,-1.570796
9.2,2023-08-02 23:43:26,23.701524,114.651909,78.43,1.39,0,0,20,2,11063.498316,114.651373,23.709,0,-1.505716,-1.570796
9.2,2023-08-02 23:43:26,23.701524,114.651909,78.43,1.39,0,0,20,2,11063.498316,114.651373,23.709,0,-1.505716,-1.570796
9.2,2023-08-02 23:43:26,23.701524,114.651909,78.43,1.39,0,0,20,2,11063.498316,114.651373,23.709,0,-1.505716,-1.570796
9.2,2023-08-02 23:43:26,23.701524,114.651909,78.43,1.39,0,0,20,2,11063.498316,114.651373,23.709,0,-1.505716,-1.570796
9.2,2023-08-02 23:43:26,23.701524,114.651909,78.43,1.39,0,0,20,2,11063.498316,114.651373,23.709,0,-1.505716,-1.570796
9.2,2023-08-02 23:43:26,23.701524,114.651909,78.43,1.39,0,0,20,2,11063.498316,114.651373,23.709,0,-1.505716,-1.570796
9.2,2023-08-02 23:43:26,23.701524,114.651909,78.43,1.39,0,0,20,2,11063.498316,114.651373,23.709,0,-1.505716,-1.570796
9.2,2023-08-02 23:43:26,23.701524,114.651909,78.43,1.39,0,0,20,2,11063.498316,114.651373,23.709,0,-1.505716,-1.570796
9.2,2023-08-02 23:43:26,23.701524,114.651909,78.43,1.39,0,0,20,2,11063.498316,114.651373,23.709,0,-1.505716,-1.570796
9.2,2023-08-02 23:43:26,23.701524,114.651909,78.43,1.39,0,0,20,2,11063.498316,114.651373,23.709,0,-1.505716,-1.570796
9.2,2023-08-02 23:43:26,23.701524,114.651909,78.43,1.39,0,0,20,2,11063.498316,114.651373,23.709,0,-1.505716,-1.570796
9.2,2023-08-02 23:43:26,23.701524,114.651909,78.43,1.39,0,0,20,2,11063.498316,114.651373,23.709,0,-1.505716,-1.570796
9.2,2023-08-02 23:43:26,23.701524,114.651909,78.43,1.39,0,0,20,2,11063.498316,114.651373,23.709,0,-1.505716,-1.570796
9.2,2023-08-02 23:43:26,23.701524,114.651909,78.43,1.39,0,0,20,2,11063.498315,114.651373,23.709,0,-1.505716,-1.570796
9.2,2023-08-02 23:43:26,23.701524,114.651909,78.43,1.39,0,0,20,2,11063.498315,114.651374,23.709,0,-1.505716,-1.570795
9.2,2023-08-02 23:43:26,23.701524,114.651909,78.43,1.39,0,0,20,2,11063.498315,114.651374,23.709,0,-1.505716,-1.570794
9.2,2023-08-02 23:43:26,23.701524,114.651909,78.43,1.39,0,0,20,2,11063.498315,114.651374,23.709,0,-1.505716,-1.570793
9.2,2023-08-02 23:43:26,23.701524,114.651909,78.43,1.39,0,0,20,2,11063.498314,114.651374,23.709,0,-1.505716,-1.570791
9.2,2023-08-02 23:43:26,23.701524,114.651909,78.43,1.39,0,0,20,2,11063.498312,114.651374,23.709,0,-1.505716,-1.570789
9.2,2023-08-02 23:43:26,23.701524,114.651909,78.43,1.39,0,0,20,2,11063.498309,114.651375,23.709,0,-1.505716,-1.570786
9.2,2023-08-02 23:43:26,23.701524,114.651909,78.43,1.39,0,0,20,2,11063.498305,114.651375,23.709,0,-1.505716,-1.570782
9.2,2023-08-02 23:43:26,23.701524,114.651909,78.43,1.39,0,0,20,2,11063.498299,114.651375,23.709,0,-1.505716,-1.570777
9.2,2023-08-02 23:43:26,23.701524,114.651909,78.43,1.39,0,0,20,2,11063.498291,114.651376,23.709,0,-1.505716,-1.570772
9.2,2023-08-02 23:43:26,23.701524,114.651909,78.43,1.39,0,0,20,2,11063.49828,114.651377,23.709,0,-1.505716,-1.570766
9.2,2023-08-02 23:43:26,23.701524,114.651909,78.43,1.39,0,0,20,2,11063.498264,114.651378,23.709,0,-1.505716,-1.570758
9.2,2023-08-02 23:43:26,23.701524,114.651909,78.43,1.39,0,0,20,2,11063.498244,114.651378,23.709,0,-1.505716,-1.57075
9.2,2023-08-02 23:43:26,23.701524,114.651909,78.43,1.39,0,0,20,2,11063.498218,114.651379,23.709,0,-1.505716,-1.57074
9.2,2023-08-02 23:43:26,23.701524,114.651909,78.43,1.39,0,0,20,2,11063.498184,114.651381,23.709,0,-1.505716,-1.570729
9.2,2023-08-02 23:43:26,23.701524,114.651909,78.43,1.39,0,0,20,2,11063.498142,114.651382,23.709,0,-1.505716,-1.570717
9.2,2023-08-02 23:43:26,23.701524,114.651909,78.43,1.39,0,0,20,2,11063.49809,114.651383,23.709,0,-1.505716,-1.570704
9.2,2023-08-02 23:43:26,23.701524,114.651909,78.43,1.39,0,0,20,2,11063.498026,114.651385,23.709,0,-1.505716,-1.570689
9.2,2023-08-02 23:43:26,23.701524,114.651909,78.43,1.39,0,0,20,2,11063.497948,114.651387,23.709,0,-1.505716,-1.570672
9.2,2023-08-02 23:43:26,23.701524,114.651909,78.43,1.39,0,0,20,2,11063.497854,114.651389,23.709,0,-1.505716,-1.570654
9.2,2023-08-02 23:43:26,23.701524,114.651909,78.43,1.39,0,0,20,2,11063.497741,114.651391,23.708999,0,-1.505716,-1.570634
9.2,2023-08-02 23:43:26,23.701524,114.651909,78.43,1.39,0,0,20,2,11063.497608,114.651393,23.708999,0,-1.505716,-1.570612
9.2,2023-08-02 23:43:26,23.701524,114.651909,78.43,1.39,0,0,20,2,11063.497452,114.651396,23.708999,0,-1.505716,-1.570589
9.2,2023-08-02 23:43:27,23.701524,114.651909,78.43,1.39,0,0,20,2,11063.497268,114.651398,23.708999,0,-1.505716,-1.570564
9.2,2023-08-02 23:43:28,23.701524,114.651909,78.43,1.39,0,0,20,2,11063.497055,114.651401,23.708999,0,-1.505716,-1.570536
9.2,2023-08-02 23:43:29,23.701524,114.651909,78.43,1.39,0,0,20,2,11063.496809,114.651405,23.708999,0,-1.505716,-1.570507
9.2,2023-08-02 23:43:30,23.701524,114.651909,78.43,1.39,0,0,20,2,11063.496525,114.651408,23.708999,0,-1.505716,-1.570475
9.2,2023-08-02 23:43:31,23.701524,114.651909,78.43,1.39,0,0,20,2,11063.4962,114.651412,23.708998,0,-1.505716,-1.570441
9.2,2023-08-02 23:43:32,23.701524,114.651909,78.43,1.39,0,0,20,2,11063.49583,114.651415,23.708998,0,-1.505716,-1.570405
9.2,2023-08-02 23:43:33,23.701524,114.651909,78.43,1.39,0,0,20,2,11063.495409,114.65142,23.708998,0,-1.505716,-1.570367
9.2,2023-08-02 23:43:34,23.701524,114.651909,78.43,1.39,0,0,20,2,11063.494934,114.651424,23.708998,0,-1.505716,-1.570326
9.2,2023-08-02 23:43:35,23.701524,114.651909,78.43,1.39,0,0,20,2,11063.494398,114.651429,23.708998,0,-1.505716,-1.570283
9.2,2023-08-02 23:43:36,23.701524,114.651909,78.43,1.39,0,0,20,2,11063.493796,114.651434,23.708997,0,-1.505716,-1.570237
9.2,2023-08-02 23:43:37,23.701524,114.651909,78.43,1.39,0,0,20,2,11063.493122,114.651439,23.708997,0,-1.505716,-1.570188
9.2,2023-08-02 23:43:38,23.701524,114.651909,78.43,1.39,0,0,20,2,11063.49237,114.651444,23.708997,0,-1.505716,-1.570137
9.2,2023-08-02 23:43:39,23.701524,114.651909,78.43,1.39,0,0,20,2,11063.491534,114.65145,23.708997,0,-1.505716,-1.570083
9.2,2023-08-02 23:43:40,23.701524,114.651909,78.43,1.39,0,0,20,2,11063.490606,114.651456,23.708996,0,-1.505716,-1.570025
9.2,2023-08-02 23:43:41,23.701524,114.651909,78.43,1.39,0,0,20,2,11063.489579,114.651463,23.708996,0,-1.505716,-1.569965
9.2,2023-08-02 23:43:42,23.701524,114.651909,78.43,1.39,0,0,20,2,11063.488446,114.65147,23.708996,0,-1.505716,-1.569902
9.2,2023-08-02 23:43:43,23.701524,114.651909,78.43,1.39,0,0,20,2,11063.487198,114.651477,23.708995,0,-1.505716,-1.569836
9.2,2023-08-02 23:43:44,23.701524,114.651909,78.43,1.39,0,0,20,2,11063.485827,114.651484,23.708995,0,-1.505716,-1.569767
9.2,2023-08-02 23:43:45,23.701524,114.651909,78.43,1.39,0,0,20,2,11063.484323,114.651492,23.708995,0,-1.505716,-1.569694
9.2,2023-08-02 23:43:46,23.701524,114.651909,78.43,1.39,0,0,20,2,11063.482679,114.6515,23.708994,0,-1.505716,-1.569618
9.2,2023-08-02 23:43:47,23.701524,114.651909,78.43,1.39,0,0,20,2,11063.480883,114.651509,23.708994,0,-1.505716,-1.569539
9.2,2023-08-02 23:43:48,23.701524,114.651909,78.43,1.39,0,0,20,2,11063.478926,114.651518,23.708993,0,-1.505716,-1.569456
9.2,2023-08-02 23:43:49,23.701524,114.651909,78.43,1.39,0,0,20,2,11063.476797,114.651527,23.708993,0,-1.505716,-1.569369
9.2,2023-08-02 23:43:50,23.701524,114.651909,78.43,1.39,0,0,20,2,11063.474485,114.651537,23.708992,0,-1.505716,-1.569279
9.2,2023-08-02 23:43:51,23.701524,114.651909,78.43,1.39,0,0,20,2,11063.471978,114.651547,23.708992,0,-1.505716,-1.569185
9.2,2023-08-02 23:43:52,23.701524,114.651909,78.43,1.39,0,0,20,2,11063.469264,114.651557,23.708991,0,-1.505716,-1.569088
9.2,2023-08-02 23:43:53,23.701524,114.651909,78.43,1.39,0,0,20,2,11063.466332,114.651568,23.708991,0,-1.505716,-1.568986
9.2,2023-08-02 23:43:54,23.701524,114.651909,78.43,1.39,0,0,20,2,11063.463167,114.651579,23.70899,0,-1.505716,-1.568881
9.2,2023-08-02 23:43:55,23.701524,114.651909,78.43,1.39,0,0,20,2,11063.459757,114.651591,23.70899,0,-1.505716,-1.568773
9.2,2023-08-02 23:43:56,23.701524,114.651909,78.43,1.39,0,0,20,2,11063.456087,114.651603,23.708989,0,-1.505716,-1.56866
9.2,2023-08-02 23:43:57,23.701524,114.651909,78.43,1.39,0,0,20,2,11063.452143,114.651616,23.708989,0,-1.505716,-1.568544
9.2,2023-08-02 23:43:58,23.701524,114.651909,78.43,1.39,0,0,20,2,11063.44791,114.651629,23.708988,0,-1.505716,-1.568424
9.2,2023-08-02 23:43:59,23.701524,114.651909,78.43,1.39,0,0,20,2,11063.443373,114.651642,23.708987,0,-1.505716,-1.5683
9.2,2023-08-02 23:44:00,23.701524,114.651909,78.43,1.39,0,0,20,2,11063.438516,114.651656,23.708987,0,-1.505716,-1.568172
9.2,2023-08-02 23:44:01,23.701524,114.651909,78.43,1.39,0,0,20,2,11063.433322,114.65167,23.708986,0,-1.505716,-1.568041
9.2,2023-08-02 23:44:02,23.701524,114.651909,78.43,1.39,0,0,20,2,11063.427774,114.651684,23.708985,0,-1.505716,-1.567906
9.2,2023-08-02 23:44:03,23.701524,114.651909,78.43,1.39,0,0,20,2,11063.421856,114.651699,23.708985,0,-1.505716,-1.567767
9.2,2023-08-02 23:44:04,23.701524,114.651909,78.43,1.39,0,0,20,2,11063.415549,114.651715,23.708984,0,-1.505716,-1.567624
9.2,2023-08-02 23:44:05,23.701524,114.651909,78.43,1.39,0,0,20,2,11063.408836,114.65173,23.708983,0,-1.505716,-1.567478
9.2,2023-08-02 23:44:06,23.701524,114.651909,78.43,1.39,0,0,20,2,11063.401696,114.651746,23.708982,0,-1.505716,-1.567328
9.2,2023-08-02 23:44:07,23.701524,114.651909,78.43,1.39,0,0,20,2,11063.394112,114.651763,23.708982,0,-1.505716,-1.567174
9.2,2023-08-02 23:44:08,23.701524,114.651909,78.43,1.39,0,0,20,2,11063.386063,114.65178,23.708981,0,-1.505716,-1.567016
9.2,2023-08-02 23:44:09,23.701524,114.651909,78.43,1.39,0,0,20,2,11063.37753,114.651797,23.70898,0,-1.505716,-1.566855
9.2,2023-08-02 23:44:10,23.701524,114.651909,78.43,1.39,0,0,20,2,11063.368491,114.651815,23.708979,0,-1.505716,-1.56669
9.2,2023-08-02 23:44:11,23.701524,114.651909,78.43,1.39,0,0,20,2,11063.358925,114.651833,23.708978,0,-1.505716,-1.566521
9.2,2023-08-02 23:44:12,23.701524,114.651909,78.43,1.39,0,0,20,2,11063.348811,114.651852,23.708977,0,-1.505716,-1.566348
9.2,2023-08-02 23:44:13,23.701524,114.651909,78.43,1.39,0,0,20,2,11063.338126,114.651871,23.708977,0,-1.505716,-1.566172
9.2,2023-08-02 23:44:14,23.701524,114.651909,78.43,1.39,0,0,20,2,11063.326849,114.65189,23.708976,0,-1.505716,-1.565992
9.2,2023-08-02 23:44:15,23.701524,114.651909,78.43,1.39,0,0,20,2,11063.314955,114.65191,23.708975,0,-1.505716,-1.565808
9.2,2023-08-02 23:44:16,23.701524,114.651909,78.43,1.39,0,0,20,2,11063.302421,114.65193,23.708974,0,-1.505716,-1.56562
9.2,2023-08-02 23:44:17,23.701524,114.651909,78.43,1.39,0,0,20,2,11063.289223,114.651951,23.708973,0,-1.505716,-1.565429
9.2,2023-08-02 23:44:18,23.701524,114.651909,78.43,1.39,0,0,20,2,11063.275337,114.651972,23.708972,0,-1.505716,-1.565234
9.2,2023-08-02 23:44:19,23.701524,114.651909,78.43,1.39,0,0,20,2,11063.260738,114.651993,23.708971,0,-1.505716,-1.565035
9.2,2023-08-02 23:44:20,23.701524,114.651909,78.43,1.39,0,0,20,2,11063.2454,114.652015,23.70897,0,-1.505716,-1.564832
9.2,2023-08-02 23:44:21,23.701524,114.651909,78.43,1.39,0,0,20,2,11063.229296,114.652037,23.708969,0,-1.505716,-1.564626
9.2,2023-08-02 23:44:22,23.701524,114.651909,78.43,1.39,0,0,20,2,11063.212402,114.65206,23.708967,0,-1.505716,-1.564415
9.2,2023-08-02 23:44:23,23.701524,114.651909,78.43,1.39,0,0,20,2,11063.194689,114.652083,23.708966,0,-1.505716,-1.564201
9.2,2023-08-02 23:44:24,23.701524,114.651909,78.43,1.39,0,0,20,2,11063.17613,114.652106,23.708965,0,-1.505716,-1.563984
9.2,2023-08-02 23:44:25,23.701524,114.651909,78.43,1.39,0,0,20,2,11063.156698,114.65213,23.708964,0,-1.505716,-1.563762
9.2,2023-08-02 23:44:26,23.701524,114.651909,78.43,1.39,0,0,20,2,11063.136363,114.652154,23.708963,0,-1.505716,-1.563537
9.2,2023-08-02 23:44:27,23.701524,114.651909,78.43,1.39,0,0,20,2,11063.115097,114.652179,23.708962,0,-1.505716,-1.563308
9.2,2023-08-02 23:44:28,23.701524,114.651909,78.43,1.39,0,0,20,2,11063.092872,114.652204,23.708961,0,-1.505716,-1.563076
9.2,2023-08-02 23:44:29,23.701524,114.651909,78.43,1.39,0,0,20,2,11063.069656,114.652229,23.708959,0,-1.505716,-1.562839
9.2,2023-08-02 23:44:30,23.701524,114.651909,78.43,1.39,0,0,20,2,11063.045419,114.652255,23.708958,0,-1.505716,-1.562599
9.2,2023-08-02 23:44:31,23.701524,114.651909,78.43,1.39,0,0,20,2,11063.020131,114.652281,23.708957,0,-1.505716,-1.562355
9.2,2023-08-02 23:44:32,23.701524,114.651909,78.43,1.39,0,0,20,2,11062.993761,114.652308,23.708956,0,-1.505716,-1.562107
9.2,2023-08-02 23:44:33,23.701524,114.651909,78.43,1.39,0,0,20,2,11062.966276,114.652335,23.708954,0,-1.505716,-1.561856
9.2,2023-08-02 23:44:34,23.701524,114.651909,78.43,1.39,0,0,20,2,11062.937645,114.652362,23.708953,0,-1.505716,-1.561601
9.2,2023-08-02 23:44:35,23.701524,114.651909,78.43,1.39,0,0,20,2,11062.907835,114.65239,23.708952,0,-1.505716,-1.561342
9.2,2023-08-02 23:44:36,23.701524,114.651909,78.43,1.39,0,0,20,2,11062.876812,114.652418,23.70895,0,-1.505716,-1.561079
9.2,2023-08-02 23:44:37,23.701524,114.651909,78.43,1.39,0,0,20,2,11062.844543,114.652447,23.708949,0,-1.505716,-1.560813
9.2,2023-08-02 23:44:38,23.701524,114.651909,78.43,1.39,0,0,20,2,11062.810993,114.652476,23.708948,0,-1.505716,-1.560542
9.2,2023-08-02 23:44:39,23.701524,114.651909,78.43,1.39,0,0,20,2,11062.776129,114.652506,23.708946,0,-1.505716,-1.560268
9.2,2023-08-02 23:44:40,23.701524,114.651909,78.43,1.39,0,0,20,2,11062.739914,114.652535,23.708945,0,-1.505716,-1.559991
9.2,2023-08-02 23:44:41,23.701524,114.651909,78.43,1.39,0,0,20,2,11062.702314,114.652566,23.708943,0,-1.505716,-1.559709
9.2,2023-08-02 23:44:42,23.701524,114.651909,78.43,1.39,0,0,20,2,11062.663292,114.652596,23.708942,0,-1.505716,-1.559424
9.2,2023-08-02 23:44:43,23.701524,114.651909,78.43,1.39,0,0,20,2,11062.622811,114.652628,23.70894,0,-1.505716,-1.559135
9.2,2023-08-02 23:44:44,23.701524,114.651909,78.43,1.39,0,0,20,2,11062.580835,114.652659,23.708939,0,-1.505716,-1.558842
9.2,2023-08-02 23:44:45,23.701524,114.651909,78.43,1.39,0,0,20,2,11062.537327,114.652691,23.708937,0,-1.505716,-1.558546
9.2,2023-08-02 23:44:46,23.701524,114.651909,78.43,1.39,0,0,20,2,11062.492247,114.652723,23.708936,0,-1.505716,-1.558246
9.2,2023-08-02 23:44:47,23.701524,114.651909,78.43,1.39,0,0,20,2,11062.445557,114.652756,23.708934,0,-1.505716,-1.557942
9.2,2023-08-02 23:44:48,23.701524,114.651909,78.43,1.39,0,0,20,2,11062.397219,114.652789,23.708933,0,-1.505716,-1.557634
9.2,2023-08-02 23:44:49,23.701524,114.651909,78.43,1.39,0,0,20,2,11062.347194,114.652822,23.708931,0,-1.505716,-1.557322
9.2,2023-08-02 23:44:50,23.701524,114.651909,78.43,1.39,0,0,20,2,11062.29544,114.652856,23.708929,0,-1.505716,-1.557007
9.2,2023-08-02 23:44:51,23.701524,114.651909,78.43,1.39,0,0,20,2,11062.241918,114.652891,23.708928,0,-1.505716,-1.556688
9.2,2023-08-02 23:44:52,23.701524,114.651909,78.43,1.39,0,0,20,2,11062.186587,114.652925,23.708926,0,-1.505716,-1.556365
9.2,2023-08-02 23:44:53,23.701524,114.651909,78.43,1.39,0,0,20,2,11062.129405,114.65296,23.708924,0,-1.505716,-1.556039
9.2,2023-08-02 23:44:54,23.701524,114.651909,78.43,1.39,0,0,20,2,11062.070331,114.652996,23.708923,0,-1.505716,-1.555709
9.2,2023-08-02 23:44:55,23.701524,114.651909,78.43,1.39,0,0,20,2,11062.009323,114.653032,23.708921,0,-1.505716,-1.555375
9.2,2023-08-02 23:44:56,23.701524,114.651909,78.43,1.39,0,0,20,2,11061.946336,114.653068,23.708919,0,-1.505716,-1.555037
9.2,2023-08-02 23:44:57,23.701524,114.651909,78.43,1.39,0,0,20,2,11061.881329,114.653105,23.708918,0,-1.505716,-1.554695
9.2,2023-08-02 23:44:58,23.701524,114.651909,78.43,1.39,0,0,20,2,11061.814257,114.653142,23.708916,0,-1.505716,-1.55435
9.2,2023-08-02 23:44:59,23.701524,114.651909,78.43,1.39,0,0,20,2,11061.745077,114.65318,23.708914,0,-1.505716,-1.554001
9.2,2023-08-02 23:45:00,23.701524,114.651909,78.43,1.39,0,0,20,2,11061.673742,114.653218,23.708912,0,-1.505716,-1.553648
9.2,2023-08-02 23:45:01,23.701524,114.651909,78.43,1.39,0,0,20,2,11061.600209,114.653256,23.70891,0,-1.505716,-1.553292
9.2,2023-08-02 23:45:02,23.701524,114.651909,78.43,1.39,0,0,20,2,11061.524431,114.653295,23.708908,0,-1.505716,-1.552931
9.2,2023-08-02 23:45:03,23.701524,114.651909,78.43,1.39,0,0,20,2,11061.446362,114.653334,23.708907,0,-1.505716,-1.552567
9.2,2023-08-02 23:45:04,23.701524,114.651909,78.43,1.39,0,0,20,2,11061.365956,114.653373,23.708905,0,-1.505716,-1.5522
9.2,2023-08-02 23:45:05,23.701524,114.651909,78.43,1.39,0,0,20,2,11061.283165,114.653413,23.708903,0,-1.505716,-1.551828
9.2,2023-08-02 23:45:06,23.701524,114.651909,78.43,1.39,0,0,20,2,11061.197943,114.653454,23.708901,0,-1.505716,-1.551453
9.2,2023-08-02 23:45:07,23.701524,114.651909,78.43,1.39,0,0,20,2,11061.110239,114.653494,23.708899,0,-1.505716,-1.551074
9.2,2023-08-02 23:45:08,23.701524,114.651909,78.43,1.39,0,0,20,2,11061.020007,114.653536,23.708897,0,-1.505716,-1.550691
9.2,2023-08-02 23:45:09,23.701524,114.651909,78.43,1.39,0,0,20,2,11060.927197,114.653577,23.708895,0,-1.505716,-1.550304
9.2,2023-08-02 23:45:10,23.701524,114.651909,78.43,1.39,0,0,20,2,11060.83176,114.653619,23.708893,0,-1.505716,-1.549914
9.2,2023-08-02 23:45:11,23.701524,114.651909,78.43,1.39,0,0,20,2,11060.733645,114.653661,23.708891,0,-1.505716,-1.54952
9.2,2023-08-02 23:45:12,23.701524,114.651909,78.43,1.39,0,0,20,2,11060.632802,114.653704,23.708889,0,-1.505716,-1.549122
9.2,2023-08-02 23:45:13,23.701524,114.651909,78.43,1.39,0,0,20,2,11060.52918,114.653747,23.708887,0,-1.505716,-1.548721
9.2,2023-08-02 23:45:14,23.701524,114.651909,78.43,1.39,0,0,20,2,11060.422727,114.653791,23.708885,0,-1.505716,-1.548315
9.2,2023-08-02 23:45:15,23.701524,114.651909,78.43,1.39,0,0,20,2,11060.313392,114.653835,23.708883,0,-1.505716,-1.547906
9.2,2023-08-02 23:45:16,23.701524,114.651909,78.43,1.39,0,0,20,2,11060.201122,114.653879,23.708881,0,-1.505716,-1.547493
9.2,2023-08-02 23:45:17,23.701524,114.651909,78.43,1.39,0,0,20,2,11060.085865,114.653924,23.708878,0,-1.505716,-1.547077
9.2,2023-08-02 23:45:18,23.701524,114.651909,78.43,1.39,0,0,20,2,11059.967566,114.653969,23.708876,0,-1.505716,-1.546656
9.2,2023-08-02 23:45:19,23.701524,114.651909,78.43,1.39,0,0,20,2,11059.846172,114.654015,23.708874,0,-1.505716,-1.546232
9.2,2023-08-02 23:45:20,23.701524,114.651909,78.43,1.39,0,0,20,2,11059.721629,114.654061,23.708872,0,-1.505716,-1.545804
9.2,2023-08-02 23:45:21,23.701524,114.651909,78.43,1.39,0,0,20,2,11059.593882,114.654107,23.70887,0,-1.505716,-1.545373
9.2,2023-08-02 23:45:22,23.701524,114.651909,78.43,1.39,0,0,20,2,11059.462875,114.654154,23.708867,0,-1.505716,-1.544938
9.2,2023-08-02 23:45:23,23.701524,114.651909,78.43,1.39,0,0,20,2,11059.328553,114.654201,23.708865,0,-1.505716,-1.544498
9.2,2023-08-02 23:45:24,23.701524,114.651909,78.43,1.39,0,0,20,2,11059.19086,114.654249,23.708863,0,-1.505716,-1.544056
9.2,2023-08-02 23:45:25,23.701524,114.651909,78.43,1.39,0,0,20,2,11059.049738,114.654297,23.708861,0,-1.505716,-1.543609
9.2,2023-08-02 23:45:26,23.701524,114.651909,78.43,1.39,0,0,20,2,11058.905131,114.654345,23.708858,0,-1.505716,-1.543159
9.2,2023-08-02 23:45:27,23.701524,114.651909,78.43,1.39,0,0,20,2,11058.75698,114.654394,23.708856,0,-1.505716,-1.542704
9.2,2023-08-02 23:45:28,23.701524,114.651909,78.43,1.39,0,0,20,2,11058.605229,114.654443,23.708854,0,-1.505716,-1.542247
9.2,2023-08-02 23:45:29,23.701524,114.651909,78.43,1.39,0,0,20,2,11058.449817,114.654493,23.708851,0,-1.505716,-1.541785
9.2,2023-08-02 23:45:30,23.701524,114.651909,78.43,1.39,0,0,20,2,11058.290686,114.654543,23.708849,0,-1.505716,-1.54132
9.2,2023-08-02 23:45:31,23.701524,114.651909,78.43,1.39,0,0,20,2,11058.127777,114.654593,23.708846,0,-1.505716,-1.54085
9.2,2023-08-02 23:45:32,23.701524,114.651909,78.43,1.39,0,0,20,2,11057.961029,114.654644,23.708844,0,-1.505716,-1.540378
9.2,2023-08-02 23:45:33,23.701524,114.651909,78.43,1.39,0,0,20,2,11057.790381,114.654695,23.708842,0,-1.505716,-1.539901
9.2,2023-08-02 23:45:34,23.701524,114.651909,78.43,1.39,0,0,20,2,11057.615773,114.654747,23.708839,0,-1.505716,-1.539421
9.2,2023-08-02 23:45:35,23.701524,114.651909,78.43,1.39,0,0,20,2,11057.437143,114.654799,23.708837,0,-1.505716,-1.538936
9.2,2023-08-02 23:45:36,23.701524,114.651909,78.43,1.39,0,0,20,2,11057.254429,114.654852,23.708834,0,-1.505716,-1.538449
9.2,2023-08-02 23:45:37,23.701524,114.651909,78.43,1.39,0,0,20,2,11057.067568,114.654904,23.708832,0,-1.505716,-1.537957
9.2,2023-08-02 23:45:38,23.701524,114.651909,78.43,1.39,0,0,20,2,11056.876498,114.654958,23.708829,0,-1.505716,-1.537461
9.2,2023-08-02 23:45:39,23.701524,114.651909,78.43,1.39,0,0,20,2,11056.681156,114.655011,23.708826,0,-1.505716,-1.536962
9.2,2023-08-02 23:45:40,23.701524,114.651909,78.43,1.39,0,0,20,2,11056.481476,114.655065,23.708824,0,-1.505716,-1.536459
9.2,2023-08-02 23:45:41,23.701524,114.651909,78.43,1.39,0,0,20,2,11056.277395,114.65512,23.708821,0,-1.505716,-1.535953
9.2,2023-08-02 23:45:42,23.701524,114.651909,78.43,1.39,0,0,20,2,11056.068849,114.655175,23.708819,0,-1.505716,-1.535442
9.2,2023-08-02 23:45:43,23.701524,114.651909,78.43,1.39,0,0,20,2,11055.855771,114.65523,23.708816,0,-1.505716,-1.534928
9.2,2023-08-02 23:45:44,23.701524,114.651909,78.43,1.39,0,0,20,2,11055.638095,114.655286,23.708813,0,-1.505716,-1.53441
9.2,2023-08-02 23:45:45,23.701524,114.651909,78.43,1.39,0,0,20,2,11055.415756,114.655342,23.708811,0,-1.505716,-1.533889
9.2,2023-08-02 23:45:46,23.701524,114.651909,78.43,1.39,0,0,20,2,11055.188687,114.655398,23.708808,0,-1.505716,-1.533363
9.2,2023-08-02 23:45:47,23.701524,114.651909,78.43,1.39,0,0,20,2,11054.956821,114.655455,23.708805,0,-1.505716,-1.532834
9.2,2023-08-02 23:45:48,23.701524,114.651909,78.43,1.39,0,0,20,2,11054.720089,114.655512,23.708803,0,-1.505716,-1.532301
9.2,2023-08-02 23:45:49,23.701524,114.651909,78.43,1.39,0,0,20,2,11054.478423,114.65557,23.7088,0,-1.505716,-1.531764
9.2,2023-08-02 23:45:50,23.701524,114.651909,78.43,1.39,0,0,20,2,11054.231756,114.655628,23.708797,0,-1.505716,-1.531224
9.2,2023-08-02 23:45:51,23.701524,114.651909,78.43,1.39,0,0,20,2,11053.980017,114.655686,23.708794,0,-1.505716,-1.53068
9.2,2023-08-02 23:45:52,23.701524,114.651909,78.43,1.39,0,0,20,2,11053.723137,114.655745,23.708791,0,-1.505716,-1.530132
9.2,2023-08-02 23:45:53,23.701524,114.651909,78.43,1.39,0,0,20,2,11053.461046,114.655805,23.708789,0,-1.505716,-1.52958
9.2,2023-08-02 23:45:54,23.701524,114.651909,78.43,1.39,0,0,20,2,11053.193673,114.655864,23.708786,0,-1.505716,-1.529025
9.2,2023-08-02 23:45:55,23.701524,114.651909,78.43,1.39,0,0,20,2,11052.920947,114.655924,23.708783,0,-1.505716,-1.528465
9.2,2023-08-02 23:45:56,23.701524,114.651909,78.43,1.39,0,0,20,2,11052.642798,114.655985,23.70878,0,-1.505716,-1.527902
9.2,2023-08-02 23:45:57,23.701524,114.651909,78.43,1.39,0,0,20,2,11052.359151,114.656046,23.708777,0,-1.505716,-1.527336
9.2,2023-08-02 23:45:58,23.701524,114.651909,78.43,1.39,0,0,20,2,11052.069936,114.656107,23.708774,0,-1.505716,-1.526765
9.2,2023-08-02 23:45:59,23.701524,114.651909,78.43,1.39,0,0,20,2,11051.775079,114.656169,23.708771,0,-1.505716,-1.526191
9.2,2023-08-02 23:46:00,23.701524,114.651909,78.43,1.39,0,0,20,2,11051.474507,114.656231,23.708768,0,-1.505716,-1.525613
9.2,2023-08-02 23:46:01,23.701524,114.651909,78.43,1.39,0,0,20,2,11051.168146,114.656293,23.708765,0,-1.505716,-1.525031
9.2,2023-08-02 23:46:02,23.701524,114.651909,78.43,1.39,0,0,20,2,11050.855921,114.656356,23.708762,0,-1.505716,-1.524446
9.2,2023-08-02 23:46:03,23.701524,114.651909,78.43,1.39,0,0,20,2,11050.537758,114.656419,23.708759,0,-1.505716,-1.523856
9.2,2023-08-02 23:46:04,23.701524,114.651909,78.43,1.39,0,0,20,2,11050.213581,114.656483,23.708756,0,-1.505716,-1.523263
9.2,2023-08-02 23:46:05,23.701524,114.651909,78.43,1.39,0,0,20,2,11049.883314,114.656547,23.708753,0,-1.505716,-1.522667
9.2,2023-08-02 23:46:06,23.701524,114.651909,78.43,1.39,0,0,20,2,11049.546881,114.656612,23.70875,0,-1.505716,-1.522066
9.2,2023-08-02 23:46:07,23.701524,114.651909,78.43,1.39,0,0,20,2,11049.204206,114.656677,23.708747,0,-1.505716,-1.521462
9.2,2023-08-02 23:46:08,23.701524,114.651909,78.43,1.39,0,0,20,2,11048.85521,114.656742,23.708744,0,-1.505716,-1.520854
9.2,2023-08-02 23:46:09,23.701524,114.651909,78.43,1.39,0,0,20,2,11048.499817,114.656808,23.708741,0,-1.505716,-1.520242
9.2,2023-08-02 23:46:10,23.701524,114.651909,78.43,1.39,0,0,20,2,11048.137948,114.656874,23.708737,0,-1.505716,-1.519627
9.2,2023-08-02 23:46:11,23.701524,114.651909,78.43,1.39,0,0,20,2,11047.769525,114.65694,23.708734,0,-1.505716,-1.519007
9.2,2023-08-02 23:46:12,23.701524,114.651909,78.43,1.39,0,0,20,2,11047.394468,114.657007,23.708731,0,-1.505716,-1.518384
9.2,2023-08-02 23:46:13,23.701524,114.651909,78.43,1.39,0,0,20,2,11047.012697,114.657074,23.708728,0,-1.505716,-1.517757
9.2,2023-08-02 23:46:14,23.701524,114.651909,78.43,1.39,0,0,20,2,11046.624133,114.657142,23.708725,0,-1.505716,-1.517127
9.2,2023-08-02 23:46:15,23.701524,114.651909,78.43,1.39,0,0,20,2,11046.228696,114.65721,23.708721,0,-1.505716,-1.516493
9.2,2023-08-02 23:46:16,23.701524,114.651909,78.43,1.39,0,0,20,2,11045.826303,114.657279,23.708718,0,-1.505716,-1.515854
9.2,2023-08-02 23:46:17,23.701524,114.651909,78.43,1.39,0,0,20,2,11045.416874,114.657348,23.708715,0,-1.505716,-1.515213
9.2,2023-08-02 23:46:18,23.701524,114.651909,78.43,1.39,0,0,20,2,11045.000326,114.657417,23.708712,0,-1.505716,-1.514567
9.2,2023-08-02 23:46:19,23.701524,114.651909,78.43,1.39,0,0,20,2,11044.576577,114.657487,23.708708,0,-1.505716,-1.513918
9.2,2023-08-02 23:46:20,23.701524,114.651909,78.43,1.39,0,0,20,2,11044.145545,114.657557,23.708705,0,-1.505716,-1.513265
9.2,2023-08-02 23:46:21,23.701524,114.651909,78.43,1.39,0,0,20,2,11043.707146,114.657627,23.708701,0,-1.505716,-1.512608
9.2,2023-08-02 23:46:22,23.701524,114.651909,78.43,1.39,0,0,20,2,11043.261295,114.657698,23.708698,0,-1.505716,-1.511947
9.2,2023-08-02 23:46:23,23.701524,114.651909,78.43,1.39,0,0,20,2,11042.807909,114.657769,23.708695,0,-1.505716,-1.511283
9.2,2023-08-02 23:46:24,23.701524,114.651909,78.43,1.39,0,0,20,2,11042.346903,114.657841,23.708691,0,-1.505716,-1.510615
9.2,2023-08-02 23:46:25,23.701524,114.651909,78.43,1.39,0,0,20,2,11041.878191,114.657913,23.708688,0,-1.505716,-1.509943
9.2,2023-08-02 23:46:26,23.701524,114.651909,78.43,1.39,0,0,20,2,11041.401688,114.657986,23.708684,0,-1.505716,-1.509267
9.2,2023-08-02 23:46:27,23.701524,114.651909,78.43,1.39,0,0,20,2,11040.917307,114.658059,23.708681,0,-1.505716,-1.508588
9.2,2023-08-02 23:46:28,23.701524,114.651909,78.43,1.39,0,0,20,2,11040.424963,114.658132,23.708677,0,-1.505716,-1.507905
9.2,2023-08-02 23:46:29,23.701524,114.651909,78.43,1.39,0,0,20,2,11039.924567,114.658206,23.708674,0,-1.505716,-1.507218
9.2,2023-08-02 23:46:30,23.701524,114.651909,78.43,1.39,0,0,20,2,11039.416032,114.65828,23.70867,0,-1.505716,-1.506527
9.2,2023-08-02 23:46:31,23.701524,114.651909,78.43,1.39,0,0,20,2,11038.899271,114.658354,23.708667,0,-1.505716,-1.505833
9.2,2023-08-02 23:46:32,23.701524,114.651909,78.43,1.39,0,0,20,2,11038.374193,114.658429,23.708663,0,-1.505716,-1.505135
9.2,2023-08-02 23:46:33,23.701524,114.651909,78.43,1.39,0,0,20,2,11037.840711,114.658504,23.70866,0,-1.505716,-1.504433
9.2,2023-08-02 23:46:34,23.701524,114.651909,78.43,1.39,0,0,20,2,11037.298735,114.65858,23.708656,0,-1.505716,-1.503727
9.2,2023-08-02 23:46:35,23.701524,114.651909,78.43,1.39,0,0,20,2,11036.748175,114.658656,23.708652,0,-1.505716,-1.503018
9.2,2023-08-02 23:46:36,23.701524,114.651909,78.43,1.39,0,0,20,2,11036.18894,114.658733,23.708649,0,-1.505716,-1.502305
9.2,2023-08-02 23:46:37,23.701524,114.651909,78.43,1.39,0,0,20,2,11035.62094,114.65881,23.708645,0,-1.505716,-1.501588
9.2,2023-08-02 23:46:38,23.701524,114.651909,78.43,1.39,0,0,20,2,11035.044084,114.658887,23.708641,0,-1.505716,-1.500867
9.2,2023-08-02 23:46:39,23.701524,114.651909,78.43,1.39,0,0,20,2,11034.458278,114.658965,23.708638,0,-1.505716,-1.500143
9.2,2023-08-02 23:46:40,23.701524,114.651909,78.43,1.39,0,0,20,2,11033.863432,114.659043,23.708634,0,-1.505716,-1.499415
9.2,2023-08-02 23:46:41,23.701524,114.651909,78.43,1.39,0,0,20,2,11033.259452,114.659121,23.70863,0,-1.505716,-1.498683
9.2,2023-08-02 23:46:42,23.701524,114.651909,78.43,1.39,0,0,20,2,11032.646245,114.6592,23.708626,0,-1.505716,-1.497947
9.2,2023-08-02 23:46:43,23.701524,114.651909,78.43,1.39,0,0,20,2,11032.023717,114.659279,23.708623,0,-1.505716,-1.497207
9.2,2023-08-02 23:46:44,23.701524,114.651909,78.43,1.39,0,0,20,2,11031.391775,114.659359,23.708619,0,-1.505716,-1.496464
9.2,2023-08-02 23:46:45,23.701524,114.651909,78.43,1.39,0,0,20,2,11030.750323,114.659439,23.708615,0,-1.505716,-1.495717
9.2,2023-08-02 23:46:46,23.701524,114.651909,78.43,1.39,0,0,20,2,11030.099267,114.659519,23.708611,0,-1.505716,-1.494967
9.2,2023-08-02 23:46:47,23.701524,114.651909,78.43,1.39,0,0,20,2,11029.43851,114.6596,23.708607,0,-1.505716,-1.494212
9.2,2023-08-02 23:46:48,23.701524,114.651909,78.43,1.39,0,0,20,2,11028.767958,114.659682,23.708603,0,-1.505716,-1.493454
9.2,2023-08-02 23:46:49,23.701524,114.651909,78.43,1.39,0,0,20,2,11028.087512,114.659763,23.708599,0,-1.505716,-1.492692
9.2,2023-08-02 23:46:50,23.701524,114.651909,78.43,1.39,0,0,20,2,11027.397078,114.659845,23.708596,0,-1.505716,-1.491926
9.2,2023-08-02 23:46:51,23.701524,114.651909,78.43,1.39,0,0,20,2,11026.696556,114.659928,23.708592,0,-1.505716,-1.491157
9.2,2023-08-02 23:46:52,23.701524,114.651909,78.43,1.39,0,0,20,2,11025.98585,114.660011,23.708588,0,-1.505716,-1.490383
9.2,2023-08-02 23:46:53,23.701524,114.651909,78.43,1.39,0,0,20,2,11025.26486,114.660094,23.708584,0,-1.505716,-1.489606
9.2,2023-08-02 23:46:54,23.701524,114.651909,78.43,1.39,0,0,20,2,11024.533488,114.660178,23.70858,0,-1.505716,-1.488826
9.2,2023-08-02 23:46:55,23.701524,114.651909,78.43,1.39,0,0,20,2,11023.791635,114.660262,23.708576,0,-1.505716,-1.488041
9.2,2023-08-02 23:46:56,23.701524,114.651909,78.43,1.39,0,0,20,2,11023.039201,114.660346,23.708572,0,-1.505716,-1.487253
9.2,2023-08-02 23:46:57,23.701524,114.651909,78.43,1.39,0,0,20,2,11022.276086,114.660431,23.708568,0,-1.505716,-1.486461
9.2,2023-08-02 23:46:58,23.701524,114.651909,78.43,1.39,0,0,20,2,11021.50219,114.660516,23.708563,0,-1.505716,-1.485665
9.2,2023-08-02 23:46:59,23.701524,114.651909,78.43,1.39,0,0,20,2,11020.71741,114.660602,23.708559,0,-1.505716,-1.484865
9.2,2023-08-02 23:47:00,23.701524,114.651909,78.43,1.39,0,0,20,2,11019.921646,114.660688,23.708555,0,-1.505716,-1.484062
9.2,2023-08-02 23:47:01,23.701524,114.651909,78.43,1.39,0,0,20,2,11019.114795,114.660774,23.708551,0,-1.505716,-1.483255
9.2,2023-08-02 23:47:02,23.701524,114.651909,78.43,1.39,0,0,20,2,11018.296755,114.660861,23.708547,0,-1.505716,-1.482444
9.2,2023-08-02 23:47:03,23.701524,114.651909,78.43,1.39,0,0,20,2,11017.467424,114.660948,23.708543,0,-1.505716,-1.48163
9.2,2023-08-02 23:47:04,23.701524,114.651909,78.43,1.39,0,0,20,2,11016.626697,114.661036,23.708539,0,-1.505716,-1.480811
9.2,2023-08-02 23:47:05,23.701524,114.651909,78.43,1.39,0,0,20,2,11015.774471,114.661124,23.708534,0,-1.505716,-1.479989
9.2,2023-08-02 23:47:06,23.701524,114.651909,78.43,1.39,0,0,20,2,11014.910641,114.661212,23.70853,0,-1.505716,-1.479163
9.2,2023-08-02 23:47:07,23.701524,114.651909,78.43,1.39,0,0,20,2,11014.035104,114.661301,23.708526,0,-1.505716,-1.478334
9.2,2023-08-02 23:47:08,23.701524,114.651909,78.43,1.39,0,0,20,2,11013.147752,114.66139,23.708522,0,-1.505716,-1.4775
9.2,2023-08-02 23:47:09,23.701524,114.651909,78.43,1.39,0,0,20,2,11012.248482,114.66148,23.708517,0,-1.505716,-1.476663
9.2,2023-08-02 23:47:10,23.701524,114.651909,78.43,1.39,0,0,20,2,11011.337186,114.66157,23.708513,0,-1.505716,-1.475822
9.2,2023-08-02 23:47:11,23.701524,114.651909,78.43,1.39,0,0,20,2,11010.413759,114.66166,23.708509,0,-1.505716,-1.474978
9.2,2023-08-02 23:47:12,23.701524,114.651909,78.43,1.39,0,0,20,2,11009.478092,114.661751,23.708504,0,-1.505716,-1.474129
9.2,2023-08-02 23:47:13,23.701524,114.651909,78.43,1.39,0,0,20,2,11008.530079,114.661842,23.7085,0,-1.505716,-1.473277
9.2,2023-08-02 23:47:14,23.701524,114.651909,78.43,1.39,0,0,20,2,11007.569612,114.661934,23.708496,0,-1.505716,-1.472421
9.2,2023-08-02 23:47:15,23.701524,114.651909,78.43,1.39,0,0,20,2,11006.596581,114.662025,23.708491,0,-1.505716,-1.471561
9.2,2023-08-02 23:47:16,23.701524,114.651909,78.43,1.39,0,0,20,2,11005.610879,114.662118,23.708487,0,-1.505716,-1.470698
9.2,2023-08-02 23:47:17,23.701524,114.651909,78.43,1.39,0,0,20,2,11004.612397,114.662211,23.708483,0,-1.505716,-1.469831
9.2,2023-08-02 23:47:18,23.701524,114.651909,78.43,1.39,0,0,20,2,11003.601023,114.662304,23.708478,0,-1.505716,-1.46896
9.2,2023-08-02 23:47:19,23.701524,114.651909,78.43,1.39,0,0,20,2,11002.576649,114.662397,23.708474,0,-1.505716,-1.468085
9.2,2023-08-02 23:47:20,23.701524,114.651909,78.43,1.39,0,0,20,2,11001.539163,114.662491,23.708469,0,-1.505716,-1.467207
9.2,2023-08-02 23:47:21,23.701524,114.651909,78.43,1.39,0,0,20,2,11000.488454,114.662585,23.708465,0,-1.505716,-1.466324
9.2,2023-08-02 23:47:22,23.701524,114.651909,78.43,1.39,0,0,20,2,10999.424411,114.66268,23.70846,0,-1.505716,-1.465438
9.2,2023-08-02 23:47:23,23.701524,114.651909,78.43,1.39,0,0,20,2,10998.346921,114.662775,23.708456,0,-1.505716,-1.464549
9.2,2023-08-02 23:47:24,23.701524,114.651909,78.43,1.39,0,0,20,2,10997.255873,114.662871,23.708451,0,-1.505716,-1.463655
9.2,2023-08-02 23:47:25,23.701524,114.651909,78.43,1.39,0,0,20,2,10996.151153,114.662966,23.708446,0,-1.505716,-1.462758
9.2,2023-08-02 23:47:26,23.701524,114.651909,78.43,1.39,0,0,20,2,10995.032648,114.663063,23.708442,0,-1.505716,-1.461857
9.2,2023-08-02 23:47:27,23.701524,114.651909,78.43,1.39,0,0,20,2,10993.900245,114.663159,23.708437,0,-1.505716,-1.460952
9.2,2023-08-02 23:47:28,23.701524,114.651909,78.43,1.39,0,0,20,2,10992.753828,114.663256,23.708433,0,-1.505716,-1.460043
9.2,2023-08-02 23:47:29,23.701524,114.651909,78.43,1.39,0,0,20,2,10991.593284,114.663354,23.708428,0,-1.505716,-1.459131
9.2,2023-08-02 23:47:30,23.701524,114.651909,78.43,1.39,0,0,20,2,10990.418496,114.663452,23.708423,0,-1.505716,-1.458215
9.2,2023-08-02 23:47:31,23.701524,114.651909,78.43,1.39,0,0,20,2,10989.229351,114.66355,23.708419,0,-1.505716,-1.457295
9.2,2023-08-02 23:47:32,23.701524,114.651909,78.43,1.39,0,0,20,2,10988.02573,114.663648,23.708414,0,-1.505716,-1.456372
9.2,2023-08-02 23:47:33,23.701524,114.651909,78.43,1.39,0,0,20,2,10986.807519,114.663747,23.708409,0,-1.505716,-1.455444
9.2,2023-08-02 23:47:34,23.701524,114.651909,78.43,1.39,0,0,20,2,10985.5746,114.663847,23.708404,0,-1.505716,-1.454513
9.2,2023-08-02 23:47:35,23.701524,114.651909,78.43,1.39,0,0,20,2,10984.326856,114.663947,23.7084,0,-1.505716,-1.453578
9.2,2023-08-02 23:47:36,23.701524,114.651909,78.43,1.39,0,0,20,2,10983.064168,114.664047,23.708395,0,-1.505716,-1.45264
