distance,time,lat,lon,ele,speed,hr,cad,temperature,strava_index,camera.ele,camera.lon,camera.lat,camera.roll,camera.heading,camera.pitch
3.93,2023-10-26 23:35:28,23.403412,114.582802,24.8,27.85,0,0,20,3,5927.597683,114.583879,23.4037,0,0.828576,-1.570796
3.93,2023-10-26 23:35:28,23.403412,114.582802,24.8,27.85,0,0,20,3,5927.597683,114.583879,23.4037,0,0.828576,-1.570796
3.93,2023-10-26 23:35:28,23.403412,114.582802,24.8,27.85,0,0,20,3,5927.597683,114.583879,23.4037,0,0.828576,-1.570796
3.93,2023-10-26 23:35:28,23.403412,114.582802,24.8,27.85,0,0,20,3,5927.597683,114.583879,23.4037,0,0.828576,-1.570796
3.93,2023-10-26 23:35:28,23.403412,114.582802,24.8,27.85,0,0,20,3,5927.597683,114.583879,23.4037,0,0.828576,-1.570796
3.93,2023-10-26 23:35:28,23.403412,114.582802,24.8,27.85,0,0,20,3,5927.597683,114.583879,23.4037,0,0.828576,-1.570796
3.93,2023-10-26 23:35:28,23.403412,114.582802,24.8,27.85,0,0,20,3,5927.597683,114.583879,23.4037,0,0.828576,-1.570796
3.93,2023-10-26 23:35:28,23.403412,114.582802,24.8,27.85,0,0,20,3,5927.597683,114.583879,23.4037,0,0.828576,-1.570796
3.93,2023-10-26 23:35:28,23.403412,114.582802,24.8,27.85,0,0,20,3,5927.597683,114.583879,23.4037,0,0.828576,-1.570796
3.93,2023-10-26 23:35:28,23.403412,114.582802,24.8,27.85,0,0,20,3,5927.597683,114.583879,23.4037,0,0.828576,-1.570796
3.93,2023-10-26 23:35:28,23.403412,114.582802,24.8,27.85,0,0,20,3,5927.597683,114.583879,23.4037,0,0.828576,-1.570796
3.93,2023-10-26 23:35:28,23.403412,114.582802,24.8,27.85,0,0,20,3,5927.597683,114.583879,23.4037,0,0.828576,-1.570796
3.93,2023-10-26 23:35:28,23.403412,114.582802,24.8,27.85,0,0,20,3,5927.597683,114.583879,23.4037,0,0.828576,-1.570796
3.93,2023-10-26 23:35:28,23.403412,114.582802,24.8,27.85,0,0,20,3,5927.597683,114.583879,23.4037,0,0.828576,-1.570796
3.93,2023-10-26 23:35:28,23.403412,114.582802,24.8,27.85,0,0,20,3,5927.597683,114.583879,23.4037,0,0.828576,-1.570796
3.93,2023-10-26 23:35:28,23.403412,114.582802,24.8,27.85,0,0,20,3,5927.597683,114.583879,23.4037,0,0.828576,-1.570796
3.93,2023-10-26 23:35:28,23.403412,114.582802,24.8,27.85,0,0,20,3,5927.597683,114.583879,23.4037,0,0.828576,-1.570796
3.93,2023-10-26 23:35:28,23.403412,114.582802,24.8,27.85,0,0,20,3,5927.597683,114.583879,23.4037,0,0.828576,-1.570796
3.93,2023-10-26 23:35:28,23.403412,114.582802,24.8,27.85,0,0,20,3,5927.597683,114.583879,23.4037,0,0.828576,-1.570796
3.93,2023-10-26 23:35:28,23.403412,114.582802,24.8,27.85,0,0,20,3,5927.597683,114.583879,23.4037,0,0.828576,-1.570796
3.93,2023-10-26 23:35:28,23.403412,114.582802,24.8,27.85,0,0,20,3,5927.597683,114.583879,23.4037,0,0.828576,-1.570796
3.93,2023-10-26 23:35:28,23.403412,114.582802,24.8,27.85,0,0,20,3,5927.597683,114.583879,23.4037,0,0.828576,-1.570796
3.93,2023-10-26 23:35:28,23.403412,114.582802,24.8,27.85,0,0,20,3,5927.597683,114.583879,23.4037,0,0.828576,-1.570796
3.93,2023-10-26 23:35:28,23.403412,114.582802,24.8,27.85,0,0,20,3,5927.597683,114.583879,23.4037,0,0.828576,-1.570796
3.93,2023-10-26 23:35:28,23.403412,114.582802,24.8,27.85,0,0,20,3,5927.597683,114.583879,23.4037,0,0.828576,-1.570796
3.93,2023-10-26 23:35:28,23.403412,114.582802,24.8,27.85,0,0,20,3,5927.597683,114.583879,23.4037,0,0.828576,-1.570796
3.93,2023-10-26 23:35:28,23.403412,114.582802,24.8,27.85,0,0,20,3,5927.597683,114.583879,23.4037,0,0.828576,-1.570796
3.93,2023-10-26 23:35:28,23.403412,114.582802,24.8,27.85,0,0,20,3,5927.597683,114.583879,23.4037,0,0.828576,-1.570796
3.93,2023-10-26 23:35:28,23.403412,114.582802,24.8,27.85,0,0,20,3,5927.597683,114.583879,23.4037,0,0.828576,-1.570796
3.93,2023-10-26 23:35:28,23.403412,114.582802,24.8,27.85,0,0,20,3,5927.597683,114.583879,23.4037,0,0.828576,-1.570796
3.93,2023-10-26 23:35:28,23.403412,114.582802,24.8,27.85,0,0,20,3,5927.597683,114.583879,23.4037,0,0.828576,-1.570796
3.93,2023-10-26 23:35:28,23.403412,114.582802,24.8,27.85,0,0,20,3,5927.597683,114.583879,23.4037,0,0.828576,-1.570796
3.93,2023-10-26 23:35:28,23.403412,114.582802,24.8,27.85,0,0,20,3,5927.597683,114.583879,23.4037,0,0.828576,-1.570796
3.93,2023-10-26 23:35:28,23.403412,114.582802,24.8,27.85,0,0,20,3,5927.597683,114.583879,23.4037,0,0.828576,-1.570796
3.93,2023-10-26 23:35:28,23.403412,114.582802,24.8,27.85,0,0,20,3,5927.597683,114.583879,23.4037,0,0.828576,-1.570796
3.93,2023-10-26 23:35:28,23.403412,114.582802,24.8,27.85,0,0,20,3,5927.597683,114.583879,23.4037,0,0.828576,-1.570796
3.93,2023-10-26 23:35:28,23.403412,114.582802,24.8,27.85,0,0,20,3,5927.597683,114.583879,23.4037,0,0.828576,-1.570796
3.93,2023-10-26 23:35:28,23.403412,114.582802,24.8,27.85,0,0,20,3,5927.597683,114.583879,23.4037,0,0.828576,-1.570796
3.93,2023-10-26 23:35:28,23.403412,114.582802,24.8,27.85,0,0,20,3,5927.597683,114.583879,23.4037,0,0.828576,-1.570796
3.93,2023-10-26 23:35:28,23.403412,114.582802,24.8,27.85,0,0,20,3,5927.597683,114.583879,23.4037,0,0.828576,-1.570796
3.93,2023-10-26 23:35:28,23.403412,114.582802,24.8,27.85,0,0,20,3,5927.597683,114.583879,23.4037,0,0.828576,-1.570796
3.93,2023-10-26 23:35:28,23.403412,114.582802,24.8,27.85,0,0,20,3,5927.597683,114.583879,23.4037,0,0.828576,-1.570796
3.93,2023-10-26 23:35:28,23.403412,114.582802,24.8,27.85,0,0,20,3,5927.597683,114.583879,23.4037,0,0.828576,-1.570796
3.93,2023-10-26 23:35:28,23.403412,114.582802,24.8,27.85,0,0,20,3,5927.597683,114.583879,23.4037,0,0.828576,-1.570796
3.93,2023-10-26 23:35:28,23.403412,114.582802,24.8,27.85,0,0,20,3,5927.597683,114.583879,23.4037,0,0.828576,-1.570796
3.93,2023-10-26 23:35:28,23.403412,114.582802,24.8,27.85,0,0,20,3,5927.597683,114.583879,23.4037,0,0.828576,-1.570796
3.93,2023-10-26 23:35:28,23.403412,114.582802,24.8,27.85,0,0,20,3,5927.597683,114.583879,23.4037,0,0.828576,-1.570796
3.93,2023-10-26 23:35:28,23.403412,114.582802,24.8,27.85,0,0,20,3,5927.597683,114.583879,23.4037,0,0.828576,-1.570796
3.93,2023-10-26 23:35:28,23.403412,114.582802,24.8,27.85,0,0,20,3,5927.597683,114.583879,23.4037,0,0.828576,-1.570796
3.93,2023-10-26 23:35:28,23.403412,114.582802,24.8,27.85,0,0,20,3,5927.597683,114.583879,23.4037,0,0.828576,-1.570796
3.93,2023-10-26 23:35:28,23.403412,114.582802,24.8,27.85,0,0,20,3,5927.597683,114.583879,23.4037,0,0.828576,-1.570796
3.93,2023-10-26 23:35:28,23.403412,114.582802,24.8,27.85,0,0,20,3,5927.597683,114.583879,23.4037,0,0.828576,-1.570796
3.93,2023-10-26 23:35:28,23.403412,114.582802,24.8,27.85,0,0,20,3,5927.597683,114.583879,23.4037,0,0.828576,-1.570796
3.93,2023-10-26 23:35:28,23.403412,114.582802,24.8,27.85,0,0,20,3,5927.597683,114.583879,23.4037,0,0.828576,-1.570796
3.93,2023-10-26 23:35:28,23.403412,114.582802,24.8,27.85,0,0,20,3,5927.597683,114.583879,23.4037,0,0.828576,-1.570796
3.93,2023-10-26 23:35:28,23.403412,114.582802,24.8,27.85,0,0,20,3,5927.597683,114.583879,23.4037,0,0.828576,-1.570796
3.93,2023-10-26 23:35:28,23.403412,114.582802,24.8,27.85,0,0,20,3,5927.597683,114.583879,23.4037,0,0.828576,-1.570796
3.93,2023-10-26 23:35:28,23.403412,114.582802,24.8,27.85,0,0,20,3,5927.597683,114.583879,23.4037,0,0.828576,-1.570796
3.93,2023-10-26 23:35:28,23.403412,114.582802,24.8,27.85,0,0,20,3,5927.597683,114.583879,23.4037,0,0.828576,-1.570796
3.93,2023-10-26 23:35:28,23.403412,114.582802,24.8,27.85,0,0,20,3,5927.597683,114.583879,23.4037,0,0.828576,-1.570796
3.93,2023-10-26 23:35:28,23.403412,114.582802,24.8,27.85,0,0,20,3,5927.597683,114.583879,23.4037,0,0.828576,-1.570796
3.93,2023-10-26 23:35:28,23.403412,114.582802,24.8,27.85,0,0,20,3,5927.597683,114.583879,23.4037,0,0.828576,-1.570796
3.93,2023-10-26 23:35:28,23.403412,114.582802,24.8,27.85,0,0,20,3,5927.597683,114.583879,23.4037,0,0.828576,-1.570796
3.93,2023-10-26 23:35:28,23.403412,114.582802,24.8,27.85,0,0,20,3,5927.597683,114.583879,23.4037,0,0.828576,-1.570796
3.93,2023-10-26 23:35:28,23.403412,114.582802,24.8,27.85,0,0,20,3,5927.597683,114.583879,23.4037,0,0.828576,-1.570796
3.93,2023-10-26 23:35:28,23.403412,114.582802,24.8,27.85,0,0,20,3,5927.597683,114.583879,23.4037,0,0.828576,-1.570796
3.93,2023-10-26 23:35:28,23.403412,114.582802,24.8,27.85,0,0,20,3,5927.597683,114.583879,23.4037,0,0.828576,-1.570796
3.93,2023-10-26 23:35:28,23.403412,114.582802,24.8,27.85,0,0,20,3,5927.597683,114.583879,23.4037,0,0.828576,-1.570796
3.93,2023-10-26 23:35:28,23.403412,114.582802,24.8,27.85,0,0,20,3,5927.597683,114.583879,23.4037,0,0.828576,-1.570796
3.93,2023-10-26 23:35:28,23.403412,114.582802,24.8,27.85,0,0,20,3,5927.597683,114.583879,23.4037,0,0.828576,-1.570796
3.93,2023-10-26 23:35:28,23.403412,114.582802,24.8,27.85,0,0,20,3,5927.597683,114.583879,23.4037,0,0.828576,-1.570796
3.93,2023-10-26 23:35:28,23.403412,114.582802,24.8,27.85,0,0,20,3,5927.597683,114.583879,23.4037,0,0.828576,-1.570796
3.93,2023-10-26 23:35:28,23.403412,114.582802,24.8,27.85,0,0,20,3,5927.597683,114.583879,23.4037,0,0.828576,-1.570796
3.93,2023-10-26 23:35:28,23.403412,114.582802,24.8,27.85,0,0,20,3,5927.597683,114.583879,23.4037,0,0.828576,-1.570796
3.93,2023-10-26 23:35:28,23.403412,114.582802,24.8,27.85,0,0,20,3,5927.597683,114.583879,23.4037,0,0.828576,-1.570796
3.93,2023-10-26 23:35:28,23.403412,114.582802,24.8,27.85,0,0,20,3,5927.597683,114.583879,23.4037,0,0.828576,-1.570796
3.93,2023-10-26 23:35:28,23.403412,114.582802,24.8,27.85,0,0,20,3,5927.597683,114.583879,23.4037,0,0.828576,-1.570796
3.93,2023-10-26 23:35:28,23.403412,114.582802,24.8,27.85,0,0,20,3,5927.597683,114.583879,23.4037,0,0.828576,-1.570796
3.93,2023-10-26 23:35:28,23.403412,114.582802,24.8,27.85,0,0,20,3,5927.597683,114.583879,23.4037,0,0.828576,-1.570796
3.93,2023-10-26 23:35:28,23.403412,114.582802,24.8,27.85,0,0,20,3,5927.597683,114.583879,23.4037,0,0.828576,-1.570796
3.93,2023-10-26 23:35:28,23.403412,114.582802,24.8,27.85,0,0,20,3,5927.597683,114.583879,23.4037,0,0.828576,-1.570796
3.93,2023-10-26 23:35:28,23.403412,114.582802,24.8,27.85,0,0,20,3,5927.597683,114.583879,23.4037,0,0.828576,-1.570796
3.93,2023-10-26 23:35:28,23.403412,114.582802,24.8,27.85,0,0,20,3,5927.597683,114.583879,23.4037,0,0.828576,-1.570796
3.93,2023-10-26 23:35:28,23.403412,114.582802,24.8,27.85,0,0,20,3,5927.597683,114.583879,23.4037,0,0.828576,-1.570796
3.93,2023-10-26 23:35:28,23.403412,114.582802,24.8,27.85,0,0,20,3,5927.597683,114.583879,23.4037,0,0.828576,-1.570796
3.93,2023-10-26 23:35:28,23.403412,114.582802,24.8,27.85,0,0,20,3,5927.597683,114.583879,23.4037,0,0.828576,-1.570796
3.93,2023-10-26 23:35:28,23.403412,114.582802,24.8,27.85,0,0,20,3,5927.597683,114.583879,23.4037,0,0.828576,-1.570796
3.93,2023-10-26 23:35:28,23.403412,114.582802,24.8,27.85,0,0,20,3,5927.597683,114.583879,23.4037,0,0.828576,-1.570796
3.93,2023-10-26 23:35:28,23.403412,114.582802,24.8,27.85,0,0,20,3,5927.597683,114.583879,23.4037,0,0.828576,-1.570796
3.93,2023-10-26 23:35:28,23.403412,114.582802,24.8,27.85,0,0,20,3,5927.597683,114.583879,23.4037,0,0.828576,-1.570796
3.93,2023-10-26 23:35:28,23.403412,114.582802,24.8,27.85,0,0,20,3,5927.597683,114.583879,23.4037,0,0.828576,-1.570796
3.93,2023-10-26 23:35:28,23.403412,114.582802,24.8,27.85,0,0,20,3,5927.597683,114.583879,23.4037,0,0.828576,-1.570796
3.93,2023-10-26 23:35:28,23.403412,114.582802,24.8,27.85,0,0,20,3,5927.597683,114.583879,23.4037,0,0.828576,-1.570796
3.93,2023-10-26 23:35:28,23.403412,114.582802,24.8,27.85,0,0,20,3,5927.597683,114.583879,23.4037,0,0.828576,-1.570796
3.93,2023-10-26 23:35:28,23.403412,114.582802,24.8,27.85,0,0,20,3,5927.597683,114.583879,23.4037,0,0.828576,-1.570796
3.93,2023-10-26 23:35:28,23.403412,114.582802,24.8,27.85,0,0,20,3,5927.597683,114.583879,23.4037,0,0.828576,-1.570796
3.93,2023-10-26 23:35:28,23.403412,114.582802,24.8,27.85,0,0,20,3,5927.597683,114.583879,23.4037,0,0.828576,-1.570796
3.93,2023-10-26 23:35:28,23.403412,114.582802,24.8,27.85,0,0,20,3,5927.597683,114.583879,23.4037,0,0.828576,-1.570796
3.93,2023-10-26 23:35:28,23.403412,114.582802,24.8,27.85,0,0,20,3,5927.597683,114.583879,23.4037,0,0.828576,-1.570796
3.93,2023-10-26 23:35:28,23.403412,114.582802,24.8,27.85,0,0,20,3,5927.597683,114.583879,23.4037,0,0.828576,-1.570796
3.93,2023-10-26 23:35:28,23.403412,114.582802,24.8,27.85,0,0,20,3,5927.597683,114.583879,23.4037,0,0.828576,-1.570796
3.93,2023-10-26 23:35:28,23.403412,114.582802,24.8,27.85,0,0,20,3,5927.597683,114.583879,23.4037,0,0.828576,-1.570796
3.93,2023-10-26 23:35:28,23.403412,114.582802,24.8,27.85,0,0,20,3,5927.597683,114.583879,23.4037,0,0.828576,-1.570796
3.93,2023-10-26 23:35:28,23.403412,114.582802,24.8,27.85,0,0,20,3,5927.597683,114.583879,23.4037,0,0.828576,-1.570796
3.93,2023-10-26 23:35:28,23.403412,114.582802,24.8,27.85,0,0,20,3,5927.597683,114.583879,23.4037,0,0.828576,-1.570796
3.93,2023-10-26 23:35:28,23.403412,114.582802,24.8,27.85,0,0,20,3,5927.597683,114.583879,23.4037,0,0.828576,-1.570796
3.93,2023-10-26 23:35:28,23.403412,114.582802,24.8,27.85,0,0,20,3,5927.597683,114.583879,23.4037,0,0.828576,-1.570796
3.93,2023-10-26 23:35:28,23.403412,114.582802,24.8,27.85,0,0,20,3,5927.597683,114.583879,23.4037,0,0.828576,-1.570796
3.93,2023-10-26 23:35:28,23.403412,114.582802,24.8,27.85,0,0,20,3,5927.597683,114.583879,23.4037,0,0.828576,-1.570796
3.93,2023-10-26 23:35:28,23.403412,114.582802,24.8,27.85,0,0,20,3,5927.597683,114.583879,23.4037,0,0.828576,-1.570796
3.93,2023-10-26 23:35:28,23.403412,114.582802,24.8,27.85,0,0,20,3,5927.597683,114.583879,23.4037,0,0.828576,-1.570796
3.93,2023-10-26 23:35:28,23.403412,114.582802,24.8,27.85,0,0,20,3,5927.597683,114.583879,23.4037,0,0.828576,-1.570796
3.93,2023-10-26 23:35:28,23.403412,114.582802,24.8,27.85,0,0,20,3,5927.597683,114.583879,23.4037,0,0.828576,-1.570796
3.93,2023-10-26 23:35:28,23.403412,114.582802,24.8,27.85,0,0,20,3,5927.597683,114.583879,23.4037,0,0.828576,-1.570796
3.93,2023-10-26 23:35:28,23.403412,114.582802,24.8,27.85,0,0,20,3,5927.597683,114.583879,23.4037,0,0.828576,-1.570796
3.93,2023-10-26 23:35:28,23.403412,114.582802,24.8,27.85,0,0,20,3,5927.597683,114.583879,23.4037,0,0.828576,-1.570796
3.93,2023-10-26 23:35:28,23.403412,114.582802,24.8,27.85,0,0,20,3,5927.597683,114.583879,23.4037,0,0.828576,-1.570796
3.93,2023-10-26 23:35:28,23.403412,114.582802,24.8,27.85,0,0,20,3,5927.597683,114.583879,23.4037,0,0.828576,-1.570796
3.93,2023-10-26 23:35:28,23.403412,114.582802,24.8,27.85,0,0,20,3,5927.597683,114.583879,23.4037,0,0.828576,-1.570796
3.93,2023-10-26 23:35:28,23.403412,114.582802,24.8,27.85,0,0,20,3,5927.597683,114.583879,23.4037,0,0.828576,-1.570796
3.93,2023-10-26 23:35:28,23.403412,114.582802,24.8,27.85,0,0,20,3,5927.597683,114.583879,23.4037,0,0.828576,-1.570796
3.93,2023-10-26 23:35:28,23.403412,114.582802,24.8,27.85,0,0,20,3,5927.597683,114.583879,23.4037,0,0.828576,-1.570796
3.93,2023-10-26 23:35:28,23.403412,114.582802,24.8,27.85,0,0,20,3,5927.597683,114.583879,23.4037,0,0.828576,-1.570796
3.93,2023-10-26 23:35:28,23.403412,114.582802,24.8,27.85,0,0,20,3,5927.597683,114.583879,23.4037,0,0.828576,-1.570796
3.93,2023-10-26 23:35:28,23.403412,114.582802,24.8,27.85,0,0,20,3,5927.597683,114.583879,23.4037,0,0.828576,-1.570796
3.93,2023-10-26 23:35:28,23.403412,114.582802,24.8,27.85,0,0,20,3,5927.597683,114.583879,23.4037,0,0.828576,-1.570796
3.93,2023-10-26 23:35:28,23.403412,114.582802,24.8,27.85,0,0,20,3,5927.597683,114.583879,23.4037,0,0.828576,-1.570796
3.93,2023-10-26 23:35:28,23.403412,114.582802,24.8,27.85,0,0,20,3,5927.597683,114.583879,23.4037,0,0.828576,-1.570796
3.93,2023-10-26 23:35:28,23.403412,114.582802,24.8,27.85,0,0,20,3,5927.597683,114.583879,23.4037,0,0.828576,-1.570796
3.93,2023-10-26 23:35:28,23.403412,114.582802,24.8,27.85,0,0,20,3,5927.597683,114.583879,23.4037,0,0.828576,-1.570796
3.93,2023-10-26 23:35:28,23.403412,114.582802,24.8,27.85,0,0,20,3,5927.597683,114.583879,23.4037,0,0.828576,-1.570796
3.93,2023-10-26 23:35:28,23.403412,114.582802,24.8,27.85,0,0,20,3,5927.597683,114.583879,23.4037,0,0.828576,-1.570796
3.93,2023-10-26 23:35:28,23.403412,114.582802,24.8,27.85,0,0,20,3,5927.597683,114.583879,23.4037,0,0.828576,-1.570796
3.93,2023-10-26 23:35:28,23.403412,114.582802,24.8,27.85,0,0,20,3,5927.597683,114.583879,23.4037,0,0.828576,-1.570796
3.93,2023-10-26 23:35:28,23.403412,114.582802,24.8,27.85,0,0,20,3,5927.597683,114.583879,23.4037,0,0.828576,-1.570796
3.93,2023-10-26 23:35:28,23.403412,114.582802,24.8,27.85,0,0,20,3,5927.597683,114.583879,23.4037,0,0.828576,-1.570796
3.93,2023-10-26 23:35:28,23.403412,114.582802,24.8,27.85,0,0,20,3,5927.597683,114.583879,23.4037,0,0.828576,-1.570796
3.93,2023-10-26 23:35:28,23.403412,114.582802,24.8,27.85,0,0,20,3,5927.597683,114.583879,23.4037,0,0.828576,-1.570796
3.93,2023-10-26 23:35:28,23.403412,114.582802,24.8,27.85,0,0,20,3,5927.597683,114.583879,23.4037,0,0.828576,-1.570796
3.93,2023-10-26 23:35:28,23.403412,114.582802,24.8,27.85,0,0,20,3,5927.597683,114.583879,23.4037,0,0.828576,-1.570796
3.93,2023-10-26 23:35:28,23.403412,114.582802,24.8,27.85,0,0,20,3,5927.597683,114.583879,23.4037,0,0.828576,-1.570796
3.93,2023-10-26 23:35:28,23.403412,114.582802,24.8,27.85,0,0,20,3,5927.597683,114.583879,23.4037,0,0.828576,-1.570796
3.93,2023-10-26 23:35:28,23.403412,114.582802,24.8,27.85,0,0,20,3,5927.597683,114.583879,23.4037,0,0.828576,-1.570796
3.93,2023-10-26 23:35:28,23.403412,114.582802,24.8,27.85,0,0,20,3,5927.597683,114.583879,23.4037,0,0.828576,-1.570796
3.93,2023-10-26 23:35:28,23.403412,114.582802,24.8,27.85,0,0,20,3,5927.597683,114.583879,23.4037,0,0.828576,-1.570796
3.93,2023-10-26 23:35:28,23.403412,114.582802,24.8,27.85,0,0,20,3,5927.597683,114.583879,23.4037,0,0.828576,-1.570796
3.93,2023-10-26 23:35:28,23.403412,114.582802,24.8,27.85,0,0,20,3,5927.597683,114.583879,23.4037,0,0.828576,-1.570796
3.93,2023-10-26 23:35:28,23.403412,114.582802,24.8,27.85,0,0,20,3,5927.597683,114.583879,23.4037,0,0.828576,-1.570796
3.93,2023-10-26 23:35:28,23.403412,114.582802,24.8,27.85,0,0,20,3,5927.597683,114.583879,23.4037,0,0.828576,-1.570796
3.93,2023-10-26 23:35:28,23.403412,114.582802,24.8,27.85,0,0,20,3,5927.597683,114.583879,23.4037,0,0.828576,-1.570796
3.93,2023-10-26 23:35:28,23.403412,114.582802,24.8,27.85,0,0,20,3,5927.597683,114.583879,23.4037,0,0.828576,-1.570796
3.93,2023-10-26 23:35:28,23.403412,114.582802,24.8,27.85,0,0,20,3,5927.597683,114.583879,23.4037,0,0.828576,-1.570796
3.93,2023-10-26 23:35:28,23.403412,114.582802,24.8,27.85,0,0,20,3,5927.597683,114.583879,23.4037,0,0.828576,-1.570796
3.93,2023-10-26 23:35:28,23.403412,114.582802,24.8,27.85,0,0,20,3,5927.597683,114.583879,23.4037,0,0.828576,-1.570796
3.93,2023-10-26 23:35:28,23.403412,114.582802,24.8,27.85,0,0,20,3,5927.597683,114.583879,23.4037,0,0.828576,-1.570796
3.93,2023-10-26 23:35:28,23.403412,114.582802,24.8,27.85,0,0,20,3,5927.597683,114.583879,23.4037,0,0.828576,-1.570796
3.93,2023-10-26 23:35:28,23.403412,114.582802,24.8,27.85,0,0,20,3,5927.597683,114.583879,23.4037,0,0.828576,-1.570796
3.93,2023-10-26 23:35:28,23.403412,114.582802,24.8,27.85,0,0,20,3,5927.597683,114.583879,23.4037,0,0.828576,-1.570796
3.93,2023-10-26 23:35:28,23.403412,114.582802,24.8,27.85,0,0,20,3,5927.597683,114.583879,23.4037,0,0.828576,-1.570796
3.93,2023-10-26 23:35:28,23.403412,114.582802,24.8,27.85,0,0,20,3,5927.597683,114.583879,23.4037,0,0.828576,-1.570796
3.93,2023-10-26 23:35:28,23.403412,114.582802,24.8,27.85,0,0,20,3,5927.597683,114.583879,23.4037,0,0.828576,-1.570796
3.93,2023-10-26 23:35:28,23.403412,114.582802,24.8,27.85,0,0,20,3,5927.597683,114.583879,23.4037,0,0.828576,-1.570796
3.93,2023-10-26 23:35:28,23.403412,114.582802,24.8,27.85,0,0,20,3,5927.597683,114.583879,23.4037,0,0.828576,-1.570796
3.93,2023-10-26 23:35:28,23.403412,114.582802,24.8,27.85,0,0,20,3,5927.597683,114.583879,23.4037,0,0.828576,-1.570796
3.93,2023-10-26 23:35:28,23.403412,114.582802,24.8,27.85,0,0,20,3,5927.597683,114.583879,23.4037,0,0.828576,-1.570796
3.93,2023-10-26 23:35:28,23.403412,114.582802,24.8,27.85,0,0,20,3,5927.597683,114.583879,23.4037,0,0.828576,-1.570796
3.93,2023-10-26 23:35:28,23.403412,114.582802,24.8,27.85,0,0,20,3,5927.597683,114.583879,23.4037,0,0.828576,-1.570796
3.93,2023-10-26 23:35:28,23.403412,114.582802,24.8,27.85,0,0,20,3,5927.597683,114.583879,23.4037,0,0.828576,-1.570796
3.93,2023-10-26 23:35:28,23.403412,114.582802,24.8,27.85,0,0,20,3,5927.597683,114.583879,23.4037,0,0.828576,-1.570796
3.93,2023-10-26 23:35:28,23.403412,114.582802,24.8,27.85,0,0,20,3,5927.597683,114.583879,23.4037,0,0.828576,-1.570796
3.93,2023-10-26 23:35:28,23.403412,114.582802,24.8,27.85,0,0,20,3,5927.597683,114.583879,23.4037,0,0.828576,-1.570796
3.93,2023-10-26 23:35:28,23.403412,114.582802,24.8,27.85,0,0,20,3,5927.597683,114.583879,23.4037,0,0.828576,-1.570796
3.93,2023-10-26 23:35:28,23.403412,114.582802,24.8,27.85,0,0,20,3,5927.597683,114.583879,23.4037,0,0.828576,-1.570796
3.93,2023-10-26 23:35:28,23.403412,114.582802,24.8,27.85,0,0,20,3,5927.597683,114.583879,23.4037,0,0.828576,-1.570796
3.93,2023-10-26 23:35:28,23.403412,114.582802,24.8,27.85,0,0,20,3,5927.597683,114.583879,23.4037,0,0.828576,-1.570796
3.93,2023-10-26 23:35:28,23.403412,114.582802,24.8,27.85,0,0,20,3,5927.597683,114.583879,23.4037,0,0.828576,-1.570796
3.93,2023-10-26 23:35:28,23.403412,114.582802,24.8,27.85,0,0,20,3,5927.597683,114.583879,23.4037,0,0.828576,-1.570796
3.93,2023-10-26 23:35:28,23.403412,114.582802,24.8,27.85,0,0,20,3,5927.597683,114.583879,23.4037,0,0.828576,-1.570796
3.93,2023-10-26 23:35:28,23.403412,114.582802,24.8,27.85,0,0,20,3,5927.597683,114.583879,23.4037,0,0.828576,-1.570796
3.93,2023-10-26 23:35:28,23.403412,114.582802,24.8,27.85,0,0,20,3,5927.597683,114.583879,23.4037,0,0.828576,-1.570796
3.93,2023-10-26 23:35:28,23.403412,114.582802,24.8,27.85,0,0,20,3,5927.597683,114.583879,23.4037,0,0.828576,-1.570796
3.93,2023-10-26 23:35:28,23.403412,114.582802,24.8,27.85,0,0,20,3,5927.597683,114.583879,23.4037,0,0.828576,-1.570796
3.93,2023-10-26 23:35:28,23.403412,114.582802,24.8,27.85,0,0,20,3,5927.597683,114.583879,23.4037,0,0.828576,-1.570796
3.93,2023-10-26 23:35:28,23.403412,114.582802,24.8,27.85,0,0,20,3,5927.597683,114.583879,23.4037,0,0.828576,-1.570796
3.93,2023-10-26 23:35:28,23.403412,114.582802,24.8,27.85,0,0,20,3,5927.597683,114.583879,23.4037,0,0.828576,-1.570796
3.93,2023-10-26 23:35:28,23.403412,114.582802,24.8,27.85,0,0,20,3,5927.597683,114.583879,23.4037,0,0.828576,-1.570796
3.93,2023-10-26 23:35:28,23.403412,114.582802,24.8,27.85,0,0,20,3,5927.597683,114.583879,23.4037,0,0.828576,-1.570796
3.93,2023-10-26 23:35:28,23.403412,114.582802,24.8,27.85,0,0,20,3,5927.597683,114.583879,23.4037,0,0.828576,-1.570796
3.93,2023-10-26 23:35:28,23.403412,114.582802,24.8,27.85,0,0,20,3,5927.597683,114.583879,23.4037,0,0.828576,-1.570796
3.93,2023-10-26 23:35:28,23.403412,114.582802,24.8,27.85,0,0,20,3,5927.597683,114.583879,23.4037,0,0.828576,-1.570796
3.93,2023-10-26 23:35:28,23.403412,114.582802,24.8,27.85,0,0,20,3,5927.597683,114.583879,23.4037,0,0.828576,-1.570796
3.93,2023-10-26 23:35:28,23.403412,114.582802,24.8,27.85,0,0,20,3,5927.597683,114.583879,23.4037,0,0.828576,-1.570796
3.93,2023-10-26 23:35:28,23.403412,114.582802,24.8,27.85,0,0,20,3,5927.597683,114.583879,23.4037,0,0.828576,-1.570796
3.93,2023-10-26 23:35:28,23.403412,114.582802,24.8,27.85,0,0,20,3,5927.597683,114.583879,23.4037,0,0.828576,-1.570796
3.93,2023-10-26 23:35:28,23.403412,114.582802,24.8,27.85,0,0,20,3,5927.597683,114.583879,23.4037,0,0.828576,-1.570796
3.93,2023-10-26 23:35:28,23.403412,114.582802,24.8,27.85,0,0,20,3,5927.597683,114.583879,23.4037,0,0.828576,-1.570796
3.93,2023-10-26 23:35:28,23.403412,114.582802,24.8,27.85,0,0,20,3,5927.597683,114.583879,23.4037,0,0.828576,-1.570796
3.93,2023-10-26 23:35:28,23.403412,114.582802,24.8,27.85,0,0,20,3,5927.597683,114.583879,23.4037,0,0.828576,-1.570796
3.93,2023-10-26 23:35:28,23.403412,114.582802,24.8,27.85,0,0,20,3,5927.597683,114.583879,23.4037,0,0.828576,-1.570796
3.93,2023-10-26 23:35:28,23.403412,114.582802,24.8,27.85,0,0,20,3,5927.597683,114.583879,23.4037,0,0.828576,-1.570796
3.93,2023-10-26 23:35:28,23.403412,114.582802,24.8,27.85,0,0,20,3,5927.597683,114.583879,23.4037,0,0.828576,-1.570796
3.93,2023-10-26 23:35:28,23.403412,114.582802,24.8,27.85,0,0,20,3,5927.597683,114.583879,23.4037,0,0.828576,-1.570796
3.93,2023-10-26 23:35:28,23.403412,114.582802,24.8,27.85,0,0,20,3,5927.597683,114.583879,23.4037,0,0.828576,-1.570796
3.93,2023-10-26 23:35:28,23.403412,114.582802,24.8,27.85,0,0,20,3,5927.597683,114.583879,23.4037,0,0.828576,-1.570796
3.93,2023-10-26 23:35:28,23.403412,114.582802,24.8,27.85,0,0,20,3,5927.597683,114.583879,23.4037,0,0.828576,-1.570796
3.93,2023-10-26 23:35:28,23.403412,114.582802,24.8,27.85,0,0,20,3,5927.597683,114.583879,23.4037,0,0.828576,-1.570796
3.93,2023-10-26 23:35:28,23.403412,114.582802,24.8,27.85,0,0,20,3,5927.597683,114.583879,23.4037,0,0.828576,-1.570796
3.93,2023-10-26 23:35:28,23.403412,114.582802,24.8,27.85,0,0,20,3,5927.597683,114.583879,23.4037,0,0.828576,-1.570796
3.93,2023-10-26 23:35:28,23.403412,114.582802,24.8,27.85,0,0,20,3,5927.597683,114.583879,23.4037,0,0.828576,-1.570796
3.93,2023-10-26 23:35:28,23.403412,114.582802,24.8,27.85,0,0,20,3,5927.597683,114.583879,23.4037,0,0.828576,-1.570796
3.93,2023-10-26 23:35:28,23.403412,114.582802,24.8,27.85,0,0,20,3,5927.597683,114.583879,23.4037,0,0.828576,-1.570796
3.93,2023-10-26 23:35:28,23.403412,114.582802,24.8,27.85,0,0,20,3,5927.597683,114.583879,23.4037,0,0.828576,-1.570796
3.93,2023-10-26 23:35:28,23.403412,114.582802,24.8,27.85,0,0,20,3,5927.597683,114.583879,23.4037,0,0.828576,-1.570796
3.93,2023-10-26 23:35:28,23.403412,114.582802,24.8,27.85,0,0,20,3,5927.597683,114.583879,23.4037,0,0.828576,-1.570796
3.93,2023-10-26 23:35:28,23.403412,114.582802,24.8,27.85,0,0,20,3,5927.597683,114.583879,23.4037,0,0.828576,-1.570796
3.93,2023-10-26 23:35:28,23.403412,114.582802,24.8,27.85,0,0,20,3,5927.597683,114.583879,23.4037,0,0.828576,-1.570796
3.93,2023-10-26 23:35:28,23.403412,114.582802,24.8,27.85,0,0,20,3,5927.597683,114.583879,23.4037,0,0.828576,-1.570796
3.93,2023-10-26 23:35:28,23.403412,114.582802,24.8,27.85,0,0,20,3,5927.597683,114.583879,23.4037,0,0.828576,-1.570796
3.93,2023-10-26 23:35:28,23.403412,114.582802,24.8,27.85,0,0,20,3,5927.597683,114.583879,23.4037,0,0.828576,-1.570796
3.93,2023-10-26 23:35:28,23.403412,114.582802,24.8,27.85,0,0,20,3,5927.597683,114.583879,23.4037,0,0.828576,-1.570796
3.93,2023-10-26 23:35:28,23.403412,114.582802,24.8,27.85,0,0,20,3,5927.597683,114.583879,23.4037,0,0.828576,-1.570796
3.93,2023-10-26 23:35:28,23.403412,114.582802,24.8,27.85,0,0,20,3,5927.597683,114.583879,23.4037,0,0.828576,-1.570796
3.93,2023-10-26 23:35:28,23.403412,114.582802,24.8,27.85,0,0,20,3,5927.597683,114.583879,23.4037,0,0.828576,-1.570796
3.93,2023-10-26 23:35:28,23.403412,114.582802,24.8,27.85,0,0,20,3,5927.597683,114.583879,23.4037,0,0.828576,-1.570796
3.93,2023-10-26 23:35:28,23.403412,114.582802,24.8,27.85,0,0,20,3,5927.597683,114.583879,23.4037,0,0.828576,-1.570796
3.93,2023-10-26 23:35:28,23.403412,114.582802,24.8,27.85,0,0,20,3,5927.597683,114.583879,23.4037,0,0.828576,-1.570796
3.93,2023-10-26 23:35:28,23.403412,114.582802,24.8,27.85,0,0,20,3,5927.597683,114.583879,23.4037,0,0.828576,-1.570796
3.93,2023-10-26 23:35:28,23.403412,114.582802,24.8,27.85,0,0,20,3,5927.597683,114.583879,23.4037,0,0.828576,-1.570796
3.93,2023-10-26 23:35:28,23.403412,114.582802,24.8,27.85,0,0,20,3,5927.597683,114.583879,23.4037,0,0.828576,-1.570796
3.93,2023-10-26 23:35:28,23.403412,114.582802,24.8,27.85,0,0,20,3,5927.597683,114.583879,23.4037,0,0.828576,-1.570795
3.93,2023-10-26 23:35:28,23.403412,114.582802,24.8,27.85,0,0,20,3,5927.597683,114.583879,23.4037,0,0.828576,-1.570794
3.93,2023-10-26 23:35:28,23.403412,114.582802,24.8,27.85,0,0,20,3,5927.597682,114.583879,23.4037,0,0.828576,-1.570793
3.93,2023-10-26 23:35:28,23.403412,114.582802,24.8,27.85,0,0,20,3,5927.597682,114.583879,23.4037,0,0.828576,-1.570791
3.93,2023-10-26 23:35:28,23.403412,114.582802,24.8,27.85,0,0,20,3,5927.597681,114.583879,23.4037,0,0.828576,-1.570789
3.93,2023-10-26 23:35:28,23.403412,114.582802,24.8,27.85,0,0,20,3,5927.59768,114.583879,23.4037,0,0.828576,-1.570785
3.93,2023-10-26 23:35:28,23.403412,114.582802,24.8,27.85,0,0,20,3,5927.597677,114.583878,23.4037,0,0.828576,-1.570782
3.93,2023-10-26 23:35:28,23.403412,114.582802,24.8,27.85,0,0,20,3,5927.597674,114.583878,23.4037,0,0.828576,-1.570777
3.93,2023-10-26 23:35:28,23.403412,114.582802,24.8,27.85,0,0,20,3,5927.59767,114.583878,23.403699,0,0.828576,-1.570772
3.93,2023-10-26 23:35:28,23.403412,114.582802,24.8,27.85,0,0,20,3,5927.597663,114.583878,23.403699,0,0.828576,-1.570765
3.93,2023-10-26 23:35:28,23.403412,114.582802,24.8,27.85,0,0,20,3,5927.597655,114.583877,23.403699,0,0.828576,-1.570758
3.93,2023-10-26 23:35:28,23.403412,114.582802,24.8,27.85,0,0,20,3,5927.597644,114.583877,23.403699,0,0.828576,-1.570749
3.93,2023-10-26 23:35:28,23.403412,114.582802,24.8,27.85,0,0,20,3,5927.59763,114.583877,23.403698,0,0.828576,-1.570739
3.93,2023-10-26 23:35:28,23.403412,114.582802,24.8,27.85,0,0,20,3,5927.597612,114.583876,23.403698,0,0.828576,-1.570728
3.93,2023-10-26 23:35:28,23.403412,114.582802,24.8,27.85,0,0,20,3,5927.597589,114.583876,23.403697,0,0.828576,-1.570716
3.93,2023-10-26 23:35:28,23.403412,114.582802,24.8,27.85,0,0,20,3,5927.59756,114.583875,23.403697,0,0.828576,-1.570702
3.93,2023-10-26 23:35:28,23.403412,114.582802,24.8,27.85,0,0,20,3,5927.597526,114.583874,23.403696,0,0.828576,-1.570687
3.93,2023-10-26 23:35:28,23.403412,114.582802,24.8,27.85,0,0,20,3,5927.597483,114.583874,23.403696,0,0.828576,-1.57067
3.93,2023-10-26 23:35:28,23.403412,114.582802,24.8,27.85,0,0,20,3,5927.597432,114.583873,23.403695,0,0.828576,-1.570651
3.93,2023-10-26 23:35:28,23.403412,114.582802,24.8,27.85,0,0,20,3,5927.597372,114.583872,23.403694,0,0.828576,-1.570631
3.93,2023-10-26 23:35:28,23.403412,114.582802,24.8,27.85,0,0,20,3,5927.597299,114.583871,23.403693,0,0.828576,-1.570609
3.93,2023-10-26 23:35:28,23.403412,114.582802,24.8,27.85,0,0,20,3,5927.597214,114.58387,23.403692,0,0.828576,-1.570585
3.93,2023-10-26 23:35:29,23.403412,114.582802,24.8,27.85,0,0,20,3,5927.597115,114.583869,23.403691,0,0.828576,-1.57056
3.93,2023-10-26 23:35:30,23.403412,114.582802,24.8,27.85,0,0,20,3,5927.596999,114.583868,23.40369,0,0.828576,-1.570532
3.93,2023-10-26 23:35:31,23.403412,114.582802,24.8,27.85,0,0,20,3,5927.596866,114.583867,23.403689,0,0.828576,-1.570502
3.93,2023-10-26 23:35:32,23.403412,114.582802,24.8,27.85,0,0,20,3,5927.596712,114.583866,23.403688,0,0.828576,-1.57047
3.93,2023-10-26 23:35:33,23.403412,114.582802,24.8,27.85,0,0,20,3,5927.596536,114.583864,23.403687,0,0.828576,-1.570435
3.93,2023-10-26 23:35:34,23.403412,114.582802,24.8,27.85,0,0,20,3,5927.596335,114.583863,23.403685,0,0.828576,-1.570399
3.93,2023-10-26 23:35:35,23.403412,114.582802,24.8,27.85,0,0,20,3,5927.596107,114.583861,23.403684,0,0.828576,-1.570359
3.93,2023-10-26 23:35:36,23.403412,114.582802,24.8,27.85,0,0,20,3,5927.595849,114.583859,23.403682,0,0.828576,-1.570318
3.93,2023-10-26 23:35:37,23.403412,114.582802,24.8,27.85,0,0,20,3,5927.595558,114.583858,23.403681,0,0.828576,-1.570274
3.93,2023-10-26 23:35:38,23.403412,114.582802,24.8,27.85,0,0,20,3,5927.595232,114.583856,23.403679,0,0.828576,-1.570227
3.93,2023-10-26 23:35:39,23.403412,114.582802,24.8,27.85,0,0,20,3,5927.594866,114.583854,23.403677,0,0.828576,-1.570177
3.93,2023-10-26 23:35:40,23.403412,114.582802,24.8,27.85,0,0,20,3,5927.594459,114.583852,23.403675,0,0.828576,-1.570125
3.93,2023-10-26 23:35:41,23.403412,114.582802,24.8,27.85,0,0,20,3,5927.594005,114.583849,23.403673,0,0.828576,-1.57007
3.93,2023-10-26 23:35:42,23.403412,114.582802,24.8,27.85,0,0,20,3,5927.593502,114.583847,23.403671,0,0.828576,-1.570012
3.93,2023-10-26 23:35:43,23.403412,114.582802,24.8,27.85,0,0,20,3,5927.592945,114.583845,23.403668,0,0.828576,-1.569951
3.93,2023-10-26 23:35:44,23.403412,114.582802,24.8,27.85,0,0,20,3,5927.592331,114.583842,23.403666,0,0.828576,-1.569887
3.93,2023-10-26 23:35:45,23.403412,114.582802,24.8,27.85,0,0,20,3,5927.591654,114.583839,23.403663,0,0.828576,-1.569819
3.93,2023-10-26 23:35:46,23.403412,114.582802,24.8,27.85,0,0,20,3,5927.59091,114.583836,23.403661,0,0.828576,-1.569749
3.93,2023-10-26 23:35:47,23.403412,114.582802,24.8,27.85,0,0,20,3,5927.590095,114.583833,23.403658,0,0.828576,-1.569675
3.93,2023-10-26 23:35:48,23.403412,114.582802,24.8,27.85,0,0,20,3,5927.589203,114.58383,23.403655,0,0.828576,-1.569597
3.93,2023-10-26 23:35:49,23.403412,114.582802,24.8,27.85,0,0,20,3,5927.588229,114.583827,23.403652,0,0.828576,-1.569517
3.93,2023-10-26 23:35:50,23.403412,114.582802,24.8,27.85,0,0,20,3,5927.587168,114.583823,23.403649,0,0.828576,-1.569432
3.93,2023-10-26 23:35:51,23.403412,114.582802,24.8,27.85,0,0,20,3,5927.586013,114.58382,23.403646,0,0.828576,-1.569344
3.93,2023-10-26 23:35:52,23.403412,114.582802,24.8,27.85,0,0,20,3,5927.584759,114.583816,23.403642,0,0.828576,-1.569253
3.93,2023-10-26 23:35:53,23.403412,114.582802,24.8,27.85,0,0,20,3,5927.5834,114.583812,23.403638,0,0.828576,-1.569157
3.93,2023-10-26 23:35:54,23.403412,114.582802,24.8,27.85,0,0,20,3,5927.581929,114.583808,23.403635,0,0.828576,-1.569058
3.93,2023-10-26 23:35:55,23.403412,114.582802,24.8,27.85,0,0,20,3,5927.580338,114.583804,23.403631,0,0.828576,-1.568955
3.93,2023-10-26 23:35:56,23.403412,114.582802,24.8,27.85,0,0,20,3,5927.578622,114.5838,23.403627,0,0.828576,-1.568848
3.93,2023-10-26 23:35:57,23.403412,114.582802,24.8,27.85,0,0,20,3,5927.576773,114.583795,23.403623,0,0.828576,-1.568737
3.93,2023-10-26 23:35:58,23.403412,114.582802,24.8,27.85,0,0,20,3,5927.574783,114.58379,23.403618,0,0.828576,-1.568623
3.93,2023-10-26 23:35:59,23.403412,114.582802,24.8,27.85,0,0,20,3,5927.572644,114.583786,23.403614,0,0.828576,-1.568504
3.93,2023-10-26 23:36:00,23.403412,114.582802,24.8,27.85,0,0,20,3,5927.570348,114.583781,23.403609,0,0.828576,-1.568382
3.93,2023-10-26 23:36:01,23.403412,114.582802,24.8,27.85,0,0,20,3,5927.567888,114.583775,23.403604,0,0.828576,-1.568256
3.93,2023-10-26 23:36:02,23.403412,114.582802,24.8,27.85,0,0,20,3,5927.565254,114.58377,23.4036,0,0.828576,-1.568126
3.93,2023-10-26 23:36:03,23.403412,114.582802,24.8,27.85,0,0,20,3,5927.562437,114.583765,23.403594,0,0.828576,-1.567992
3.93,2023-10-26 23:36:04,23.403412,114.582802,24.8,27.85,0,0,20,3,5927.559429,114.583759,23.403589,0,0.828576,-1.567855
3.93,2023-10-26 23:36:05,23.403412,114.582802,24.8,27.85,0,0,20,3,5927.556219,114.583753,23.403584,0,0.828576,-1.567714
3.93,2023-10-26 23:36:06,23.403412,114.582802,24.8,27.85,0,0,20,3,5927.552799,114.583747,23.403578,0,0.828576,-1.567569
3.93,2023-10-26 23:36:07,23.403412,114.582802,24.8,27.85,0,0,20,3,5927.549159,114.583741,23.403573,0,0.828576,-1.56742
3.93,2023-10-26 23:36:08,23.403412,114.582802,24.8,27.85,0,0,20,3,5927.545287,114.583735,23.403567,0,0.828576,-1.567267
3.93,2023-10-26 23:36:09,23.403412,114.582802,24.8,27.85,0,0,20,3,5927.541174,114.583729,23.403561,0,0.828576,-1.56711
3.93,2023-10-26 23:36:10,23.403412,114.582802,24.8,27.85,0,0,20,3,5927.536809,114.583722,23.403555,0,0.828576,-1.56695
3.93,2023-10-26 23:36:11,23.403412,114.582802,24.8,27.85,0,0,20,3,5927.532182,114.583716,23.403549,0,0.828576,-1.566786
3.93,2023-10-26 23:36:12,23.403412,114.582802,24.8,27.85,0,0,20,3,5927.52728,114.583709,23.403543,0,0.828576,-1.566618
3.93,2023-10-26 23:36:13,23.403412,114.582802,24.8,27.85,0,0,20,3,5927.522093,114.583702,23.403536,0,0.828576,-1.566446
3.93,2023-10-26 23:36:14,23.403412,114.582802,24.8,27.85,0,0,20,3,5927.516608,114.583695,23.403529,0,0.828576,-1.56627
3.93,2023-10-26 23:36:15,23.403412,114.582802,24.8,27.85,0,0,20,3,5927.510814,114.583687,23.403523,0,0.828576,-1.566091
3.93,2023-10-26 23:36:16,23.403412,114.582802,24.8,27.85,0,0,20,3,5927.504698,114.58368,23.403516,0,0.828576,-1.565908
3.93,2023-10-26 23:36:17,23.403412,114.582802,24.8,27.85,0,0,20,3,5927.498248,114.583672,23.403509,0,0.828576,-1.56572
3.93,2023-10-26 23:36:18,23.403412,114.582802,24.8,27.85,0,0,20,3,5927.491451,114.583664,23.403501,0,0.828576,-1.565529
3.93,2023-10-26 23:36:19,23.403412,114.582802,24.8,27.85,0,0,20,3,5927.484294,114.583656,23.403494,0,0.828576,-1.565335
3.93,2023-10-26 23:36:20,23.403412,114.582802,24.8,27.85,0,0,20,3,5927.476764,114.583648,23.403487,0,0.828576,-1.565136
3.93,2023-10-26 23:36:21,23.403412,114.582802,24.8,27.85,0,0,20,3,5927.468847,114.58364,23.403479,0,0.828576,-1.564934
3.93,2023-10-26 23:36:22,23.403412,114.582802,24.8,27.85,0,0,20,3,5927.460529,114.583632,23.403471,0,0.828576,-1.564728
3.93,2023-10-26 23:36:23,23.403412,114.582802,24.8,27.85,0,0,20,3,5927.451796,114.583623,23.403463,0,0.828576,-1.564518
3.93,2023-10-26 23:36:24,23.403412,114.582802,24.8,27.85,0,0,20,3,5927.442634,114.583614,23.403455,0,0.828576,-1.564304
3.93,2023-10-26 23:36:25,23.403412,114.582802,24.8,27.85,0,0,20,3,5927.433029,114.583606,23.403447,0,0.828576,-1.564086
3.93,2023-10-26 23:36:26,23.403412,114.582802,24.8,27.85,0,0,20,3,5927.422964,114.583597,23.403439,0,0.828576,-1.563865
3.93,2023-10-26 23:36:27,23.403412,114.582802,24.8,27.85,0,0,20,3,5927.412426,114.583587,23.40343,0,0.828576,-1.563639
3.93,2023-10-26 23:36:28,23.403412,114.582802,24.8,27.85,0,0,20,3,5927.401399,114.583578,23.403421,0,0.828576,-1.56341
3.93,2023-10-26 23:36:29,23.403412,114.582802,24.8,27.85,0,0,20,3,5927.389867,114.583569,23.403413,0,0.828576,-1.563177
3.93,2023-10-26 23:36:30,23.403412,114.582802,24.8,27.85,0,0,20,3,5927.377814,114.583559,23.403404,0,0.828576,-1.56294
3.93,2023-10-26 23:36:31,23.403412,114.582802,24.8,27.85,0,0,20,3,5927.365224,114.583549,23.403395,0,0.828576,-1.5627
3.93,2023-10-26 23:36:32,23.403412,114.582802,24.8,27.85,0,0,20,3,5927.352081,114.583539,23.403385,0,0.828576,-1.562455
3.93,2023-10-26 23:36:33,23.403412,114.582802,24.8,27.85,0,0,20,3,5927.338367,114.583529,23.403376,0,0.828576,-1.562207
3.93,2023-10-26 23:36:34,23.403412,114.582802,24.8,27.85,0,0,20,3,5927.324067,114.583519,23.403367,0,0.828576,-1.561955
3.93,2023-10-26 23:36:35,23.403412,114.582802,24.8,27.85,0,0,20,3,5927.309162,114.583508,23.403357,0,0.828576,-1.561699
3.93,2023-10-26 23:36:36,23.403412,114.582802,24.8,27.85,0,0,20,3,5927.293636,114.583498,23.403347,0,0.828576,-1.56144
3.93,2023-10-26 23:36:37,23.403412,114.582802,24.8,27.85,0,0,20,3,5927.27747,114.583487,23.403337,0,0.828576,-1.561176
3.93,2023-10-26 23:36:38,23.403412,114.582802,24.8,27.85,0,0,20,3,5927.260646,114.583476,23.403327,0,0.828576,-1.560909
3.93,2023-10-26 23:36:39,23.403412,114.582802,24.8,27.85,0,0,20,3,5927.243147,114.583465,23.403317,0,0.828576,-1.560638
3.93,2023-10-26 23:36:40,23.403412,114.582802,24.8,27.85,0,0,20,3,5927.224954,114.583454,23.403306,0,0.828576,-1.560363
3.93,2023-10-26 23:36:41,23.403412,114.582802,24.8,27.85,0,0,20,3,5927.206047,114.583443,23.403296,0,0.828576,-1.560084
3.93,2023-10-26 23:36:42,23.403412,114.582802,24.8,27.85,0,0,20,3,5927.186408,114.583431,23.403285,0,0.828576,-1.559801
3.93,2023-10-26 23:36:43,23.403412,114.582802,24.8,27.85,0,0,20,3,5927.166018,114.583419,23.403274,0,0.828576,-1.559515
3.93,2023-10-26 23:36:44,23.403412,114.582802,24.8,27.85,0,0,20,3,5927.144856,114.583408,23.403263,0,0.828576,-1.559225
3.93,2023-10-26 23:36:45,23.403412,114.582802,24.8,27.85,0,0,20,3,5927.122904,114.583396,23.403252,0,0.828576,-1.558931
3.93,2023-10-26 23:36:46,23.403412,114.582802,24.8,27.85,0,0,20,3,5927.100141,114.583383,23.403241,0,0.828576,-1.558633
3.93,2023-10-26 23:36:47,23.403412,114.582802,24.8,27.85,0,0,20,3,5927.076546,114.583371,23.40323,0,0.828576,-1.558331
3.93,2023-10-26 23:36:48,23.403412,114.582802,24.8,27.85,0,0,20,3,5927.0521,114.583359,23.403218,0,0.828576,-1.558026
3.93,2023-10-26 23:36:49,23.403412,114.582802,24.8,27.85,0,0,20,3,5927.026781,114.583346,23.403207,0,0.828576,-1.557717
3.93,2023-10-26 23:36:50,23.403412,114.582802,24.8,27.85,0,0,20,3,5927.000567,114.583333,23.403195,0,0.828576,-1.557403
3.93,2023-10-26 23:36:51,23.403412,114.582802,24.8,27.85,0,0,20,3,5926.973439,114.58332,23.403183,0,0.828576,-1.557086
3.93,2023-10-26 23:36:52,23.403412,114.582802,24.8,27.85,0,0,20,3,5926.945373,114.583307,23.403171,0,0.828576,-1.556766
3.93,2023-10-26 23:36:53,23.403412,114.582802,24.8,27.85,0,0,20,3,5926.916349,114.583294,23.403158,0,0.828576,-1.556441
3.93,2023-10-26 23:36:54,23.403412,114.582802,24.8,27.85,0,0,20,3,5926.886343,114.583281,23.403146,0,0.828576,-1.556113
3.93,2023-10-26 23:36:55,23.403412,114.582802,24.8,27.85,0,0,20,3,5926.855334,114.583267,23.403133,0,0.828576,-1.55578
3.93,2023-10-26 23:36:56,23.403412,114.582802,24.8,27.85,0,0,20,3,5926.823299,114.583254,23.403121,0,0.828576,-1.555444
3.93,2023-10-26 23:36:57,23.403412,114.582802,24.8,27.85,0,0,20,3,5926.790214,114.58324,23.403108,0,0.828576,-1.555105
3.93,2023-10-26 23:36:58,23.403412,114.582802,24.8,27.85,0,0,20,3,5926.756057,114.583226,23.403095,0,0.828576,-1.554761
3.93,2023-10-26 23:36:59,23.403412,114.582802,24.8,27.85,0,0,20,3,5926.720804,114.583212,23.403082,0,0.828576,-1.554413
3.93,2023-10-26 23:37:00,23.403412,114.582802,24.8,27.85,0,0,20,3,5926.684432,114.583197,23.403069,0,0.828576,-1.554062
3.93,2023-10-26 23:37:01,23.403412,114.582802,24.8,27.85,0,0,20,3,5926.646916,114.583183,23.403055,0,0.828576,-1.553707
3.93,2023-10-26 23:37:02,23.403412,114.582802,24.8,27.85,0,0,20,3,5926.608231,114.583168,23.403042,0,0.828576,-1.553348
3.93,2023-10-26 23:37:03,23.403412,114.582802,24.8,27.85,0,0,20,3,5926.568355,114.583153,23.403028,0,0.828576,-1.552985
3.93,2023-10-26 23:37:04,23.403412,114.582802,24.8,27.85,0,0,20,3,5926.527261,114.583138,23.403014,0,0.828576,-1.552619
3.93,2023-10-26 23:37:05,23.403412,114.582802,24.8,27.85,0,0,20,3,5926.484925,114.583123,23.403,0,0.828576,-1.552248
3.93,2023-10-26 23:37:06,23.403412,114.582802,24.8,27.85,0,0,20,3,5926.441322,114.583108,23.402986,0,0.828576,-1.551874
3.93,2023-10-26 23:37:07,23.403412,114.582802,24.8,27.85,0,0,20,3,5926.396425,114.583093,23.402972,0,0.828576,-1.551496
3.93,2023-10-26 23:37:08,23.403412,114.582802,24.8,27.85,0,0,20,3,5926.350209,114.583077,23.402957,0,0.828576,-1.551114
3.93,2023-10-26 23:37:09,23.403412,114.582802,24.8,27.85,0,0,20,3,5926.302648,114.583061,23.402943,0,0.828576,-1.550728
3.93,2023-10-26 23:37:10,23.403412,114.582802,24.8,27.85,0,0,20,3,5926.253716,114.583046,23.402928,0,0.828576,-1.550339
3.93,2023-10-26 23:37:11,23.403412,114.582802,24.8,27.85,0,0,20,3,5926.203386,114.58303,23.402913,0,0.828576,-1.549946
3.93,2023-10-26 23:37:12,23.403412,114.582802,24.8,27.85,0,0,20,3,5926.151631,114.583013,23.402898,0,0.828576,-1.549548
3.93,2023-10-26 23:37:13,23.403412,114.582802,24.8,27.85,0,0,20,3,5926.098424,114.582997,23.402883,0,0.828576,-1.549147
3.93,2023-10-26 23:37:14,23.403412,114.582802,24.8,27.85,0,0,20,3,5926.043738,114.582981,23.402868,0,0.828576,-1.548743
3.93,2023-10-26 23:37:15,23.403412,114.582802,24.8,27.85,0,0,20,3,5925.987544,114.582964,23.402852,0,0.828576,-1.548334
3.93,2023-10-26 23:37:16,23.403412,114.582802,24.8,27.85,0,0,20,3,5925.929816,114.582947,23.402837,0,0.828576,-1.547922
3.93,2023-10-26 23:37:17,23.403412,114.582802,24.8,27.85,0,0,20,3,5925.870525,114.58293,23.402821,0,0.828576,-1.547505
3.93,2023-10-26 23:37:18,23.403412,114.582802,24.8,27.85,0,0,20,3,5925.809642,114.582913,23.402805,0,0.828576,-1.547085
3.93,2023-10-26 23:37:19,23.403412,114.582802,24.8,27.85,0,0,20,3,5925.747138,114.582896,23.402789,0,0.828576,-1.546661
3.93,2023-10-26 23:37:20,23.403412,114.582802,24.8,27.85,0,0,20,3,5925.682986,114.582878,23.402773,0,0.828576,-1.546234
3.93,2023-10-26 23:37:21,23.403412,114.582802,24.8,27.85,0,0,20,3,5925.617155,114.582861,23.402757,0,0.828576,-1.545802
3.93,2023-10-26 23:37:22,23.403412,114.582802,24.8,27.85,0,0,20,3,5925.549616,114.582843,23.40274,0,0.828576,-1.545367
3.93,2023-10-26 23:37:23,23.403412,114.582802,24.8,27.85,0,0,20,3,5925.48034,114.582825,23.402724,0,0.828576,-1.544928
3.93,2023-10-26 23:37:24,23.403412,114.582802,24.8,27.85,0,0,20,3,5925.409296,114.582807,23.402707,0,0.828576,-1.544485
3.93,2023-10-26 23:37:25,23.403412,114.582802,24.8,27.85,0,0,20,3,5925.336454,114.582789,23.40269,0,0.828576,-1.544038
3.93,2023-10-26 23:37:26,23.403412,114.582802,24.8,27.85,0,0,20,3,5925.261784,114.582771,23.402673,0,0.828576,-1.543587
3.93,2023-10-26 23:37:27,23.403412,114.582802,24.8,27.85,0,0,20,3,5925.185255,114.582752,23.402656,0,0.828576,-1.543133
3.93,2023-10-26 23:37:28,23.403412,114.582802,24.8,27.85,0,0,20,3,5925.106836,114.582733,23.402639,0,0.828576,-1.542675
3.93,2023-10-26 23:37:29,23.403412,114.582802,24.8,27.85,0,0,20,3,5925.026495,114.582715,23.402621,0,0.828576,-1.542213
3.93,2023-10-26 23:37:30,23.403412,114.582802,24.8,27.85,0,0,20,3,5924.944201,114.582696,23.402604,0,0.828576,-1.541747
3.93,2023-10-26 23:37:31,23.403412,114.582802,24.8,27.85,0,0,20,3,5924.859923,114.582677,23.402586,0,0.828576,-1.541277
3.93,2023-10-26 23:37:32,23.403412,114.582802,24.8,27.85,0,0,20,3,5924.773628,114.582657,23.402568,0,0.828576,-1.540804
3.93,2023-10-26 23:37:33,23.403412,114.582802,24.8,27.85,0,0,20,3,5924.685283,114.582638,23.40255,0,0.828576,-1.540326
3.93,2023-10-26 23:37:34,23.403412,114.582802,24.8,27.85,0,0,20,3,5924.594857,114.582618,23.402532,0,0.828576,-1.539845
3.93,2023-10-26 23:37:35,23.403412,114.582802,24.8,27.85,0,0,20,3,5924.502316,114.582599,23.402514,0,0.828576,-1.53936
3.93,2023-10-26 23:37:36,23.403412,114.582802,24.8,27.85,0,0,20,3,5924.407628,114.582579,23.402495,0,0.828576,-1.538871
3.93,2023-10-26 23:37:37,23.403412,114.582802,24.8,27.85,0,0,20,3,5924.310758,114.582559,23.402477,0,0.828576,-1.538379
3.93,2023-10-26 23:37:38,23.403412,114.582802,24.8,27.85,0,0,20,3,5924.211674,114.582538,23.402458,0,0.828576,-1.537882
3.93,2023-10-26 23:37:39,23.403412,114.582802,24.8,27.85,0,0,20,3,5924.110341,114.582518,23.402439,0,0.828576,-1.537382
3.93,2023-10-26 23:37:40,23.403412,114.582802,24.8,27.85,0,0,20,3,5924.006725,114.582497,23.40242,0,0.828576,-1.536878
3.93,2023-10-26 23:37:41,23.403412,114.582802,24.8,27.85,0,0,20,3,5923.900792,114.582477,23.402401,0,0.828576,-1.53637
3.93,2023-10-26 23:37:42,23.403412,114.582802,24.8,27.85,0,0,20,3,5923.792508,114.582456,23.402382,0,0.828576,-1.535858
3.93,2023-10-26 23:37:43,23.403412,114.582802,24.8,27.85,0,0,20,3,5923.681836,114.582435,23.402362,0,0.828576,-1.535343
3.93,2023-10-26 23:37:44,23.403412,114.582802,24.8,27.85,0,0,20,3,5923.568743,114.582414,23.402343,0,0.828576,-1.534824
3.93,2023-10-26 23:37:45,23.403412,114.582802,24.8,27.85,0,0,20,3,5923.453192,114.582393,23.402323,0,0.828576,-1.5343
3.93,2023-10-26 23:37:46,23.403412,114.582802,24.8,27.85,0,0,20,3,5923.335149,114.582371,23.402303,0,0.828576,-1.533773
3.93,2023-10-26 23:37:47,23.403412,114.582802,24.8,27.85,0,0,20,3,5923.214576,114.582349,23.402283,0,0.828576,-1.533243
3.93,2023-10-26 23:37:48,23.403412,114.582802,24.8,27.85,0,0,20,3,5923.091439,114.582328,23.402263,0,0.828576,-1.532708
3.93,2023-10-26 23:37:49,23.403412,114.582802,24.8,27.85,0,0,20,3,5922.965699,114.582306,23.402242,0,0.828576,-1.53217
3.93,2023-10-26 23:37:50,23.403412,114.582802,24.8,27.85,0,0,20,3,5922.837321,114.582284,23.402222,0,0.828576,-1.531627
3.93,2023-10-26 23:37:51,23.403412,114.582802,24.8,27.85,0,0,20,3,5922.706268,114.582261,23.402201,0,0.828576,-1.531081
3.93,2023-10-26 23:37:52,23.403412,114.582802,24.8,27.85,0,0,20,3,5922.572502,114.582239,23.402181,0,0.828576,-1.530531
3.93,2023-10-26 23:37:53,23.403412,114.582802,24.8,27.85,0,0,20,3,5922.435986,114.582217,23.40216,0,0.828576,-1.529978
3.93,2023-10-26 23:37:54,23.403412,114.582802,24.8,27.85,0,0,20,3,5922.296682,114.582194,23.402139,0,0.828576,-1.52942
3.93,2023-10-26 23:37:55,23.403412,114.582802,24.8,27.85,0,0,20,3,5922.154553,114.582171,23.402118,0,0.828576,-1.528859
3.93,2023-10-26 23:37:56,23.403412,114.582802,24.8,27.85,0,0,20,3,5922.009559,114.582148,23.402096,0,0.828576,-1.528294
3.93,2023-10-26 23:37:57,23.403412,114.582802,24.8,27.85,0,0,20,3,5921.861662,114.582125,23.402075,0,0.828576,-1.527725
3.93,2023-10-26 23:37:58,23.403412,114.582802,24.8,27.85,0,0,20,3,5921.710823,114.582102,23.402053,0,0.828576,-1.527152
3.93,2023-10-26 23:37:59,23.403412,114.582802,24.8,27.85,0,0,20,3,5921.557004,114.582078,23.402031,0,0.828576,-1.526575
3.93,2023-10-26 23:38:00,23.403412,114.582802,24.8,27.85,0,0,20,3,5921.400165,114.582054,23.40201,0,0.828576,-1.525995
3.93,2023-10-26 23:38:01,23.403412,114.582802,24.8,27.85,0,0,20,3,5921.240267,114.582031,23.401988,0,0.828576,-1.52541
3.93,2023-10-26 23:38:02,23.403412,114.582802,24.8,27.85,0,0,20,3,5921.077269,114.582007,23.401965,0,0.828576,-1.524822
3.93,2023-10-26 23:38:03,23.403412,114.582802,24.8,27.85,0,0,20,3,5920.911132,114.581983,23.401943,0,0.828576,-1.52423
3.93,2023-10-26 23:38:04,23.403412,114.582802,24.8,27.85,0,0,20,3,5920.741815,114.581958,23.401921,0,0.828576,-1.523635
3.93,2023-10-26 23:38:05,23.403412,114.582802,24.8,27.85,0,0,20,3,5920.569277,114.581934,23.401898,0,0.828576,-1.523035
3.93,2023-10-26 23:38:06,23.403412,114.582802,24.8,27.85,0,0,20,3,5920.393479,114.581909,23.401875,0,0.828576,-1.522432
3.93,2023-10-26 23:38:07,23.403412,114.582802,24.8,27.85,0,0,20,3,5920.214378,114.581885,23.401852,0,0.828576,-1.521825
3.93,2023-10-26 23:38:08,23.403412,114.582802,24.8,27.85,0,0,20,3,5920.031933,114.58186,23.401829,0,0.828576,-1.521214
3.93,2023-10-26 23:38:09,23.403412,114.582802,24.8,27.85,0,0,20,3,5919.846103,114.581835,23.401806,0,0.828576,-1.520599
3.93,2023-10-26 23:38:10,23.403412,114.582802,24.8,27.85,0,0,20,3,5919.656845,114.58181,23.401783,0,0.828576,-1.51998
3.93,2023-10-26 23:38:11,23.403412,114.582802,24.8,27.85,0,0,20,3,5919.464118,114.581784,23.401759,0,0.828576,-1.519358
3.93,2023-10-26 23:38:12,23.403412,114.582802,24.8,27.85,0,0,20,3,5919.26788,114.581759,23.401736,0,0.828576,-1.518731
3.93,2023-10-26 23:38:13,23.403412,114.582802,24.8,27.85,0,0,20,3,5919.068087,114.581733,23.401712,0,0.828576,-1.518101
3.93,2023-10-26 23:38:14,23.403412,114.582802,24.8,27.85,0,0,20,3,5918.864696,114.581708,23.401688,0,0.828576,-1.517467
3.93,2023-10-26 23:38:15,23.403412,114.582802,24.8,27.85,0,0,20,3,5918.657665,114.581682,23.401664,0,0.828576,-1.51683
3.93,2023-10-26 23:38:16,23.403412,114.582802,24.8,27.85,0,0,20,3,5918.44695,114.581655,23.40164,0,0.828576,-1.516188
3.93,2023-10-26 23:38:17,23.403412,114.582802,24.8,27.85,0,0,20,3,5918.232508,114.581629,23.401616,0,0.828576,-1.515543
3.93,2023-10-26 23:38:18,23.403412,114.582802,24.8,27.85,0,0,20,3,5918.014293,114.581603,23.401591,0,0.828576,-1.514894
3.93,2023-10-26 23:38:19,23.403412,114.582802,24.8,27.85,0,0,20,3,5917.792263,114.581576,23.401566,0,0.828576,-1.51424
3.93,2023-10-26 23:38:20,23.403412,114.582802,24.8,27.85,0,0,20,3,5917.566373,114.58155,23.401542,0,0.828576,-1.513584
3.93,2023-10-26 23:38:21,23.403412,114.582802,24.8,27.85,0,0,20,3,5917.336577,114.581523,23.401517,0,0.828576,-1.512923
3.93,2023-10-26 23:38:22,23.403412,114.582802,24.8,27.85,0,0,20,3,5917.102832,114.581496,23.401492,0,0.828576,-1.512259
3.93,2023-10-26 23:38:23,23.403412,114.582802,24.8,27.85,0,0,20,3,5916.865091,114.581469,23.401467,0,0.828576,-1.51159
3.93,2023-10-26 23:38:24,23.403412,114.582802,24.8,27.85,0,0,20,3,5916.62331,114.581441,23.401441,0,0.828576,-1.510918
3.93,2023-10-26 23:38:25,23.403412,114.582802,24.8,27.85,0,0,20,3,5916.377443,114.581414,23.401416,0,0.828576,-1.510242
3.93,2023-10-26 23:38:26,23.403412,114.582802,24.8,27.85,0,0,20,3,5916.127443,114.581386,23.40139,0,0.828576,-1.509562
3.93,2023-10-26 23:38:27,23.403412,114.582802,24.8,27.85,0,0,20,3,5915.873264,114.581358,23.401364,0,0.828576,-1.508879
3.93,2023-10-26 23:38:28,23.403412,114.582802,24.8,27.85,0,0,20,3,5915.61486,114.58133,23.401339,0,0.828576,-1.508192
3.93,2023-10-26 23:38:29,23.403412,114.582802,24.8,27.85,0,0,20,3,5915.352185,114.581302,23.401313,0,0.828576,-1.5075
3.93,2023-10-26 23:38:30,23.403412,114.582802,24.8,27.85,0,0,20,3,5915.08519,114.581274,23.401286,0,0.828576,-1.506805
3.93,2023-10-26 23:38:31,23.403412,114.582802,24.8,27.85,0,0,20,3,5914.81383,114.581246,23.40126,0,0.828576,-1.506106
3.93,2023-10-26 23:38:32,23.403412,114.582802,24.8,27.85,0,0,20,3,5914.538055,114.581217,23.401234,0,0.828576,-1.505404
3.93,2023-10-26 23:38:33,23.403412,114.582802,24.8,27.85,0,0,20,3,5914.25782,114.581188,23.401207,0,0.828576,-1.504697
3.93,2023-10-26 23:38:34,23.403412,114.582802,24.8,27.85,0,0,20,3,5913.973074,114.581159,23.40118,0,0.828576,-1.503987
3.93,2023-10-26 23:38:35,23.403412,114.582802,24.8,27.85,0,0,20,3,5913.683772,114.58113,23.401153,0,0.828576,-1.503273
3.93,2023-10-26 23:38:36,23.403412,114.582802,24.8,27.85,0,0,20,3,5913.389862,114.581101,23.401126,0,0.828576,-1.502555
3.93,2023-10-26 23:38:37,23.403412,114.582802,24.8,27.85,0,0,20,3,5913.091298,114.581072,23.401099,0,0.828576,-1.501833
3.93,2023-10-26 23:38:38,23.403412,114.582802,24.8,27.85,0,0,20,3,5912.78803,114.581042,23.401072,0,0.828576,-1.501108
3.93,2023-10-26 23:38:39,23.403412,114.582802,24.8,27.85,0,0,20,3,5912.480008,114.581013,23.401044,0,0.828576,-1.500378
3.93,2023-10-26 23:38:40,23.403412,114.582802,24.8,27.85,0,0,20,3,5912.167183,114.580983,23.401017,0,0.828576,-1.499645
3.93,2023-10-26 23:38:41,23.403412,114.582802,24.8,27.85,0,0,20,3,5911.849505,114.580953,23.400989,0,0.828576,-1.498908
3.93,2023-10-26 23:38:42,23.403412,114.582802,24.8,27.85,0,0,20,3,5911.526925,114.580923,23.400961,0,0.828576,-1.498167
3.93,2023-10-26 23:38:43,23.403412,114.582802,24.8,27.85,0,0,20,3,5911.199392,114.580893,23.400933,0,0.828576,-1.497422
3.93,2023-10-26 23:38:44,23.403412,114.582802,24.8,27.85,0,0,20,3,5910.866854,114.580862,23.400905,0,0.828576,-1.496674
3.93,2023-10-26 23:38:45,23.403412,114.582802,24.8,27.85,0,0,20,3,5910.529263,114.580832,23.400877,0,0.828576,-1.495922
3.93,2023-10-26 23:38:46,23.403412,114.582802,24.8,27.85,0,0,20,3,5910.186565,114.580801,23.400848,0,0.828576,-1.495165
3.93,2023-10-26 23:38:47,23.403412,114.582802,24.8,27.85,0,0,20,3,5909.838711,114.58077,23.400819,0,0.828576,-1.494405
3.93,2023-10-26 23:38:48,23.403412,114.582802,24.8,27.85,0,0,20,3,5909.485649,114.580739,23.400791,0,0.828576,-1.493642
3.93,2023-10-26 23:38:49,23.403412,114.582802,24.8,27.85,0,0,20,3,5909.127326,114.580708,23.400762,0,0.828576,-1.492874
3.93,2023-10-26 23:38:50,23.403412,114.582802,24.8,27.85,0,0,20,3,5908.763691,114.580677,23.400733,0,0.828576,-1.492103
3.93,2023-10-26 23:38:51,23.403412,114.582802,24.8,27.85,0,0,20,3,5908.394691,114.580645,23.400704,0,0.828576,-1.491327
3.93,2023-10-26 23:38:52,23.403412,114.582802,24.8,27.85,0,0,20,3,5908.020274,114.580614,23.400674,0,0.828576,-1.490548
3.93,2023-10-26 23:38:53,23.403412,114.582802,24.8,27.85,0,0,20,3,5907.640386,114.580582,23.400645,0,0.828576,-1.489765
3.93,2023-10-26 23:38:54,23.403412,114.582802,24.8,27.85,0,0,20,3,5907.254976,114.58055,23.400615,0,0.828576,-1.488979
3.93,2023-10-26 23:38:55,23.403412,114.582802,24.8,27.85,0,0,20,3,5906.863989,114.580518,23.400586,0,0.828576,-1.488188
3.93,2023-10-26 23:38:56,23.403412,114.582802,24.8,27.85,0,0,20,3,5906.467372,114.580485,23.400556,0,0.828576,-1.487394
3.93,2023-10-26 23:38:57,23.403412,114.582802,24.8,27.85,0,0,20,3,5906.065071,114.580453,23.400526,0,0.828576,-1.486596
3.93,2023-10-26 23:38:58,23.403412,114.582802,24.8,27.85,0,0,20,3,5905.657033,114.580421,23.400495,0,0.828576,-1.485794
3.93,2023-10-26 23:38:59,23.403412,114.582802,24.8,27.85,0,0,20,3,5905.243201,114.580388,23.400465,0,0.828576,-1.484988
3.93,2023-10-26 23:39:00,23.403412,114.582802,24.8,27.85,0,0,20,3,5904.823523,114.580355,23.400435,0,0.828576,-1.484178
3.93,2023-10-26 23:39:01,23.403412,114.582802,24.8,27.85,0,0,20,3,5904.397944,114.580322,23.400404,0,0.828576,-1.483365
3.93,2023-10-26 23:39:02,23.403412,114.582802,24.8,27.85,0,0,20,3,5903.966407,114.580289,23.400373,0,0.828576,-1.482548
3.93,2023-10-26 23:39:03,23.403412,114.582802,24.8,27.85,0,0,20,3,5903.528859,114.580256,23.400343,0,0.828576,-1.481727
3.93,2023-10-26 23:39:04,23.403412,114.582802,24.8,27.85,0,0,20,3,5903.085242,114.580222,23.400312,0,0.828576,-1.480902
3.93,2023-10-26 23:39:05,23.403412,114.582802,24.8,27.85,0,0,20,3,5902.635503,114.580188,23.40028,0,0.828576,-1.480073
3.93,2023-10-26 23:39:06,23.403412,114.582802,24.8,27.85,0,0,20,3,5902.179583,114.580155,23.400249,0,0.828576,-1.47924
3.93,2023-10-26 23:39:07,23.403412,114.582802,24.8,27.85,0,0,20,3,5901.717428,114.580121,23.400218,0,0.828576,-1.478404
3.93,2023-10-26 23:39:08,23.403412,114.582802,24.8,27.85,0,0,20,3,5901.24898,114.580087,23.400186,0,0.828576,-1.477564
3.93,2023-10-26 23:39:09,23.403412,114.582802,24.8,27.85,0,0,20,3,5900.774183,114.580052,23.400154,0,0.828576,-1.47672
3.93,2023-10-26 23:39:10,23.403412,114.582802,24.8,27.85,0,0,20,3,5900.29298,114.580018,23.400123,0,0.828576,-1.475872
3.93,2023-10-26 23:39:11,23.403412,114.582802,24.8,27.85,0,0,20,3,5899.805313,114.579984,23.400091,0,0.828576,-1.47502
3.93,2023-10-26 23:39:12,23.403412,114.582802,24.8,27.85,0,0,20,3,5899.311124,114.579949,23.400058,0,0.828576,-1.474165
3.93,2023-10-26 23:39:13,23.403412,114.582802,24.8,27.85,0,0,20,3,5898.810357,114.579914,23.400026,0,0.828576,-1.473306
3.93,2023-10-26 23:39:14,23.403412,114.582802,24.8,27.85,0,0,20,3,5898.302953,114.579879,23.399994,0,0.828576,-1.472443
3.93,2023-10-26 23:39:15,23.403412,114.582802,24.8,27.85,0,0,20,3,5897.788853,114.579844,23.399961,0,0.828576,-1.471576
3.93,2023-10-26 23:39:16,23.403412,114.582802,24.8,27.85,0,0,20,3,5897.267999,114.579809,23.399928,0,0.828576,-1.470705
3.93,2023-10-26 23:39:17,23.403412,114.582802,24.8,27.85,0,0,20,3,5896.740333,114.579773,23.399896,0,0.828576,-1.46983
3.93,2023-10-26 23:39:18,23.403412,114.582802,24.8,27.85,0,0,20,3,5896.205794,114.579738,23.399863,0,0.828576,-1.468952
3.93,2023-10-26 23:39:19,23.403412,114.582802,24.8,27.85,0,0,20,3,5895.664325,114.579702,23.39983,0,0.828576,-1.46807
3.93,2023-10-26 23:39:20,23.403412,114.582802,24.8,27.85,0,0,20,3,5895.115866,114.579666,23.399796,0,0.828576,-1.467184
3.93,2023-10-26 23:39:21,23.403412,114.582802,24.8,27.85,0,0,20,3,5894.560356,114.57963,23.399763,0,0.828576,-1.466294
3.93,2023-10-26 23:39:22,23.403412,114.582802,24.8,27.85,0,0,20,3,5893.997735,114.579594,23.399729,0,0.828576,-1.4654
3.93,2023-10-26 23:39:23,23.403412,114.582802,24.8,27.85,0,0,20,3,5893.427944,114.579557,23.399696,0,0.828576,-1.464503
3.93,2023-10-26 23:39:24,23.403412,114.582802,24.8,27.85,0,0,20,3,5892.850922,114.579521,23.399662,0,0.828576,-1.463601
3.93,2023-10-26 23:39:25,23.403412,114.582802,24.8,27.85,0,0,20,3,5892.266609,114.579484,23.399628,0,0.828576,-1.462696
3.93,2023-10-26 23:39:26,23.403412,114.582802,24.8,27.85,0,0,20,3,5891.674942,114.579447,23.399594,0,0.828576,-1.461787
3.93,2023-10-26 23:39:27,23.403412,114.582802,24.8,27.85,0,0,20,3,5891.075861,114.579411,23.39956,0,0.828576,-1.460875
3.93,2023-10-26 23:39:28,23.403412,114.582802,24.8,27.85,0,0,20,3,5890.469305,114.579373,23.399525,0,0.828576,-1.459958
3.93,2023-10-26 23:39:29,23.403412,114.582802,24.8,27.85,0,0,20,3,5889.855212,114.579336,23.399491,0,0.828576,-1.459038
3.93,2023-10-26 23:39:30,23.403412,114.582802,24.8,27.85,0,0,20,3,5889.23352,114.579299,23.399456,0,0.828576,-1.458113
3.93,2023-10-26 23:39:31,23.403412,114.582802,24.8,27.85,0,0,20,3,5888.604166,114.579261,23.399421,0,0.828576,-1.457185
3.93,2023-10-26 23:39:32,23.403412,114.582802,24.8,27.85,0,0,20,3,5887.967088,114.579224,23.399386,0,0.828576,-1.456253
3.93,2023-10-26 23:39:33,23.403412,114.582802,24.8,27.85,0,0,20,3,5887.322224,114.579186,23.399351,0,0.828576,-1.455318
3.93,2023-10-26 23:39:34,23.403412,114.582802,24.8,27.85,0,0,20,3,5886.66951,114.579148,23.399316,0,0.828576,-1.454378
3.93,2023-10-26 23:39:35,23.403412,114.582802,24.8,27.85,0,0,20,3,5886.008884,114.57911,23.399281,0,0.828576,-1.453435
3.93,2023-10-26 23:39:36,23.403412,114.582802,24.8,27.85,0,0,20,3,5885.340282,114.579071,23.399245,0,0.828576,-1.452488
3.93,2023-10-26 23:39:37,23.403412,114.582802,24.8,27.85,0,0,20,3,5884.663641,114.579033,23.399209,0,0.828576,-1.451537
3.93,2023-10-26 23:39:38,23.403412,114.582802,24.8,27.85,0,0,20,3,5883.978895,114.578994,23.399174,0,0.828576,-1.450582
3.93,2023-10-26 23:39:39,23.403412,114.582802,24.8,27.85,0,0,20,3,5883.285983,114.578955,23.399138,0,0.828576,-1.449623
3.93,2023-10-26 23:39:40,23.403412,114.582802,24.8,27.85,0,0,20,3,5882.584838,114.578917,23.399102,0,0.828576,-1.448661
