distance,time,lat,lon,ele,speed,hr,cad,temperature,strava_index,camera.ele,camera.lon,camera.lat,camera.roll,camera.heading,camera.pitch
1.42,2023-08-03 11:43:21,23.648282,114.671583,34.51,0.05,0,0,20,1,4724.072385,114.670919,23.647761,0,0.23734,-1.570796
1.42,2023-08-03 11:43:21,23.648282,114.671583,34.51,0.05,0,0,20,1,4724.072385,114.670919,23.647761,0,0.23734,-1.570796
1.42,2023-08-03 11:43:21,23.648282,114.671583,34.51,0.05,0,0,20,1,4724.072385,114.670919,23.647761,0,0.23734,-1.570796
1.42,2023-08-03 11:43:21,23.648282,114.671583,34.51,0.05,0,0,20,1,4724.072385,114.670919,23.647761,0,0.23734,-1.570796
1.42,2023-08-03 11:43:21,23.648282,114.671583,34.51,0.05,0,0,20,1,4724.072385,114.670919,23.647761,0,0.23734,-1.570796
1.42,2023-08-03 11:43:21,23.648282,114.671583,34.51,0.05,0,0,20,1,4724.072385,114.670919,23.647761,0,0.23734,-1.570796
1.42,2023-08-03 11:43:21,23.648282,114.671583,34.51,0.05,0,0,20,1,4724.072385,114.670919,23.647761,0,0.23734,-1.570796
1.42,2023-08-03 11:43:21,23.648282,114.671583,34.51,0.05,0,0,20,1,4724.072385,114.670919,23.647761,0,0.23734,-1.570796
1.42,2023-08-03 11:43:21,23.648282,114.671583,34.51,0.05,0,0,20,1,4724.072385,114.670919,23.647761,0,0.23734,-1.570796
1.42,2023-08-03 11:43:21,23.648282,114.671583,34.51,0.05,0,0,20,1,4724.072385,114.670919,23.647761,0,0.23734,-1.570796
1.42,2023-08-03 11:43:21,23.648282,114.671583,34.51,0.05,0,0,20,1,4724.072385,114.670919,23.647761,0,0.23734,-1.570796
1.42,2023-08-03 11:43:21,23.648282,114.671583,34.51,0.05,0,0,20,1,4724.072385,114.670919,23.647761,0,0.23734,-1.570796
1.42,2023-08-03 11:43:21,23.648282,114.671583,34.51,0.05,0,0,20,1,4724.072385,114.670919,23.647761,0,0.23734,-1.570796
1.42,2023-08-03 11:43:21,23.648282,114.671583,34.51,0.05,0,0,20,1,4724.072385,114.670919,23.647761,0,0.23734,-1.570796
1.42,2023-08-03 11:43:21,23.648282,114.671583,34.51,0.05,0,0,20,1,4724.072385,114.670919,23.647761,0,0.23734,-1.570796
1.42,2023-08-03 11:43:21,23.648282,114.671583,34.51,0.05,0,0,20,1,4724.072385,114.670919,23.647761,0,0.23734,-1.570796
1.42,2023-08-03 11:43:21,23.648282,114.671583,34.51,0.05,0,0,20,1,4724.072385,114.670919,23.647761,0,0.23734,-1.570796
1.42,2023-08-03 11:43:21,23.648282,114.671583,34.51,0.05,0,0,20,1,4724.072385,114.670919,23.647761,0,0.23734,-1.570796
1.42,2023-08-03 11:43:21,23.648282,114.671583,34.51,0.05,0,0,20,1,4724.072385,114.670919,23.647761,0,0.23734,-1.570796
1.42,2023-08-03 11:43:21,23.648282,114.671583,34.51,0.05,0,0,20,1,4724.072385,114.670919,23.647761,0,0.23734,-1.570796
1.42,2023-08-03 11:43:21,23.648282,114.671583,34.51,0.05,0,0,20,1,4724.072385,114.670919,23.647761,0,0.23734,-1.570796
1.42,2023-08-03 11:43:21,23.648282,114.671583,34.51,0.05,0,0,20,1,4724.072385,114.670919,23.647761,0,0.23734,-1.570796
1.42,2023-08-03 11:43:21,23.648282,114.671583,34.51,0.05,0,0,20,1,4724.072385,114.670919,23.647761,0,0.23734,-1.570796
1.42,2023-08-03 11:43:21,23.648282,114.671583,34.51,0.05,0,0,20,1,4724.072385,114.670919,23.647761,0,0.23734,-1.570796
1.42,2023-08-03 11:43:21,23.648282,114.671583,34.51,0.05,0,0,20,1,4724.072385,114.670919,23.647761,0,0.23734,-1.570796
1.42,2023-08-03 11:43:21,23.648282,114.671583,34.51,0.05,0,0,20,1,4724.072385,114.670919,23.647761,0,0.23734,-1.570796
1.42,2023-08-03 11:43:21,23.648282,114.671583,34.51,0.05,0,0,20,1,4724.072385,114.670919,23.647761,0,0.23734,-1.570796
1.42,2023-08-03 11:43:21,23.648282,114.671583,34.51,0.05,0,0,20,1,4724.072385,114.670919,23.647761,0,0.23734,-1.570796
1.42,2023-08-03 11:43:21,23.648282,114.671583,34.51,0.05,0,0,20,1,4724.072385,114.670919,23.647761,0,0.23734,-1.570796
1.42,2023-08-03 11:43:21,23.648282,114.671583,34.51,0.05,0,0,20,1,4724.072385,114.670919,23.647761,0,0.23734,-1.570796
1.42,2023-08-03 11:43:21,23.648282,114.671583,34.51,0.05,0,0,20,1,4724.072385,114.670919,23.647761,0,0.23734,-1.570796
1.42,2023-08-03 11:43:21,23.648282,114.671583,34.51,0.05,0,0,20,1,4724.072385,114.670919,23.647761,0,0.23734,-1.570796
1.42,2023-08-03 11:43:21,23.648282,114.671583,34.51,0.05,0,0,20,1,4724.072385,114.670919,23.647761,0,0.23734,-1.570796
1.42,2023-08-03 11:43:21,23.648282,114.671583,34.51,0.05,0,0,20,1,4724.072385,114.670919,23.647761,0,0.23734,-1.570796
1.42,2023-08-03 11:43:21,23.648282,114.671583,34.51,0.05,0,0,20,1,4724.072385,114.670919,23.647761,0,0.23734,-1.570796
1.42,2023-08-03 11:43:21,23.648282,114.671583,34.51,0.05,0,0,20,1,4724.072385,114.670919,23.647761,0,0.23734,-1.570796
1.42,2023-08-03 11:43:21,23.648282,114.671583,34.51,0.05,0,0,20,1,4724.072385,114.670919,23.647761,0,0.23734,-1.570796
1.42,2023-08-03 11:43:21,23.648282,114.671583,34.51,0.05,0,0,20,1,4724.072385,114.670919,23.647761,0,0.23734,-1.570796
1.42,2023-08-03 11:43:21,23.648282,114.671583,34.51,0.05,0,0,20,1,4724.072385,114.670919,23.647761,0,0.23734,-1.570796
1.42,2023-08-03 11:43:21,23.648282,114.671583,34.51,0.05,0,0,20,1,4724.072385,114.670919,23.647761,0,0.23734,-1.570796
1.42,2023-08-03 11:43:21,23.648282,114.671583,34.51,0.05,0,0,20,1,4724.072385,114.670919,23.647761,0,0.23734,-1.570796
1.42,2023-08-03 11:43:21,23.648282,114.671583,34.51,0.05,0,0,20,1,4724.072385,114.670919,23.647761,0,0.23734,-1.570796
1.42,2023-08-03 11:43:21,23.648282,114.671583,34.51,0.05,0,0,20,1,4724.072385,114.670919,23.647761,0,0.23734,-1.570796
1.42,2023-08-03 11:43:21,23.648282,114.671583,34.51,0.05,0,0,20,1,4724.072385,114.670919,23.647761,0,0.23734,-1.570796
1.42,2023-08-03 11:43:21,23.648282,114.671583,34.51,0.05,0,0,20,1,4724.072385,114.670919,23.647761,0,0.23734,-1.570796
1.42,2023-08-03 11:43:21,23.648282,114.671583,34.51,0.05,0,0,20,1,4724.072385,114.670919,23.647761,0,0.23734,-1.570796
1.42,2023-08-03 11:43:21,23.648282,114.671583,34.51,0.05,0,0,20,1,4724.072385,114.670919,23.647761,0,0.23734,-1.570796
1.42,2023-08-03 11:43:21,23.648282,114.671583,34.51,0.05,0,0,20,1,4724.072385,114.670919,23.647761,0,0.23734,-1.570796
1.42,2023-08-03 11:43:21,23.648282,114.671583,34.51,0.05,0,0,20,1,4724.072385,114.670919,23.647761,0,0.23734,-1.570796
1.42,2023-08-03 11:43:21,23.648282,114.671583,34.51,0.05,0,0,20,1,4724.072385,114.670919,23.647761,0,0.23734,-1.570796
1.42,2023-08-03 11:43:21,23.648282,114.671583,34.51,0.05,0,0,20,1,4724.072385,114.670919,23.647761,0,0.23734,-1.570796
1.42,2023-08-03 11:43:21,23.648282,114.671583,34.51,0.05,0,0,20,1,4724.072385,114.670919,23.647761,0,0.23734,-1.570796
1.42,2023-08-03 11:43:21,23.648282,114.671583,34.51,0.05,0,0,20,1,4724.072385,114.670919,23.647761,0,0.23734,-1.570796
1.42,2023-08-03 11:43:21,23.648282,114.671583,34.51,0.05,0,0,20,1,4724.072385,114.670919,23.647761,0,0.23734,-1.570796
1.42,2023-08-03 11:43:21,23.648282,114.671583,34.51,0.05,0,0,20,1,4724.072385,114.670919,23.647761,0,0.23734,-1.570796
1.42,2023-08-03 11:43:21,23.648282,114.671583,34.51,0.05,0,0,20,1,4724.072385,114.670919,23.647761,0,0.23734,-1.570796
1.42,2023-08-03 11:43:21,23.648282,114.671583,34.51,0.05,0,0,20,1,4724.072385,114.670919,23.647761,0,0.23734,-1.570796
1.42,2023-08-03 11:43:21,23.648282,114.671583,34.51,0.05,0,0,20,1,4724.072385,114.670919,23.647761,0,0.23734,-1.570796
1.42,2023-08-03 11:43:21,23.648282,114.671583,34.51,0.05,0,0,20,1,4724.072385,114.670919,23.647761,0,0.23734,-1.570796
1.42,2023-08-03 11:43:21,23.648282,114.671583,34.51,0.05,0,0,20,1,4724.072385,114.670919,23.647761,0,0.23734,-1.570796
1.42,2023-08-03 11:43:21,23.648282,114.671583,34.51,0.05,0,0,20,1,4724.072385,114.670919,23.647761,0,0.23734,-1.570796
1.42,2023-08-03 11:43:21,23.648282,114.671583,34.51,0.05,0,0,20,1,4724.072385,114.670919,23.647761,0,0.23734,-1.570796
1.42,2023-08-03 11:43:21,23.648282,114.671583,34.51,0.05,0,0,20,1,4724.072385,114.670919,23.647761,0,0.23734,-1.570796
1.42,2023-08-03 11:43:21,23.648282,114.671583,34.51,0.05,0,0,20,1,4724.072385,114.670919,23.647761,0,0.23734,-1.570796
1.42,2023-08-03 11:43:21,23.648282,114.671583,34.51,0.05,0,0,20,1,4724.072385,114.670919,23.647761,0,0.23734,-1.570796
1.42,2023-08-03 11:43:21,23.648282,114.671583,34.51,0.05,0,0,20,1,4724.072385,114.670919,23.647761,0,0.23734,-1.570796
1.42,2023-08-03 11:43:21,23.648282,114.671583,34.51,0.05,0,0,20,1,4724.072385,114.670919,23.647761,0,0.23734,-1.570796
1.42,2023-08-03 11:43:21,23.648282,114.671583,34.51,0.05,0,0,20,1,4724.072385,114.670919,23.647761,0,0.23734,-1.570796
1.42,2023-08-03 11:43:21,23.648282,114.671583,34.51,0.05,0,0,20,1,4724.072385,114.670919,23.647761,0,0.23734,-1.570796
1.42,2023-08-03 11:43:21,23.648282,114.671583,34.51,0.05,0,0,20,1,4724.072385,114.670919,23.647761,0,0.23734,-1.570796
1.42,2023-08-03 11:43:21,23.648282,114.671583,34.51,0.05,0,0,20,1,4724.072385,114.670919,23.647761,0,0.23734,-1.570796
1.42,2023-08-03 11:43:21,23.648282,114.671583,34.51,0.05,0,0,20,1,4724.072385,114.670919,23.647761,0,0.23734,-1.570796
1.42,2023-08-03 11:43:21,23.648282,114.671583,34.51,0.05,0,0,20,1,4724.072385,114.670919,23.647761,0,0.23734,-1.570796
1.42,2023-08-03 11:43:21,23.648282,114.671583,34.51,0.05,0,0,20,1,4724.072385,114.670919,23.647761,0,0.23734,-1.570796
1.42,2023-08-03 11:43:21,23.648282,114.671583,34.51,0.05,0,0,20,1,4724.072385,114.670919,23.647761,0,0.23734,-1.570796
1.42,2023-08-03 11:43:21,23.648282,114.671583,34.51,0.05,0,0,20,1,4724.072385,114.670919,23.647761,0,0.23734,-1.570796
1.42,2023-08-03 11:43:21,23.648282,114.671583,34.51,0.05,0,0,20,1,4724.072385,114.670919,23.647761,0,0.23734,-1.570796
1.42,2023-08-03 11:43:21,23.648282,114.671583,34.51,0.05,0,0,20,1,4724.072385,114.670919,23.647761,0,0.23734,-1.570796
1.42,2023-08-03 11:43:21,23.648282,114.671583,34.51,0.05,0,0,20,1,4724.072385,114.670919,23.647761,0,0.23734,-1.570796
1.42,2023-08-03 11:43:21,23.648282,114.671583,34.51,0.05,0,0,20,1,4724.072385,114.670919,23.647761,0,0.23734,-1.570796
1.42,2023-08-03 11:43:21,23.648282,114.671583,34.51,0.05,0,0,20,1,4724.072385,114.670919,23.647761,0,0.23734,-1.570796
1.42,2023-08-03 11:43:21,23.648282,114.671583,34.51,0.05,0,0,20,1,4724.072385,114.670919,23.647761,0,0.23734,-1.570796
1.42,2023-08-03 11:43:21,23.648282,114.671583,34.51,0.05,0,0,20,1,4724.072385,114.670919,23.647761,0,0.23734,-1.570796
1.42,2023-08-03 11:43:21,23.648282,114.671583,34.51,0.05,0,0,20,1,4724.072385,114.670919,23.647761,0,0.23734,-1.570796
1.42,2023-08-03 11:43:21,23.648282,114.671583,34.51,0.05,0,0,20,1,4724.072385,114.670919,23.647761,0,0.23734,-1.570796
1.42,2023-08-03 11:43:21,23.648282,114.671583,34.51,0.05,0,0,20,1,4724.072385,114.670919,23.647761,0,0.23734,-1.570796
1.42,2023-08-03 11:43:21,23.648282,114.671583,34.51,0.05,0,0,20,1,4724.072385,114.670919,23.647761,0,0.23734,-1.570796
1.42,2023-08-03 11:43:21,23.648282,114.671583,34.51,0.05,0,0,20,1,4724.072385,114.670919,23.647761,0,0.23734,-1.570796
1.42,2023-08-03 11:43:21,23.648282,114.671583,34.51,0.05,0,0,20,1,4724.072385,114.670919,23.647761,0,0.23734,-1.570796
1.42,2023-08-03 11:43:21,23.648282,114.671583,34.51,0.05,0,0,20,1,4724.072385,114.670919,23.647761,0,0.23734,-1.570796
1.42,2023-08-03 11:43:21,23.648282,114.671583,34.51,0.05,0,0,20,1,4724.072385,114.670919,23.647761,0,0.23734,-1.570796
1.42,2023-08-03 11:43:21,23.648282,114.671583,34.51,0.05,0,0,20,1,4724.072385,114.670919,23.647761,0,0.23734,-1.570796
1.42,2023-08-03 11:43:21,23.648282,114.671583,34.51,0.05,0,0,20,1,4724.072385,114.670919,23.647761,0,0.23734,-1.570796
1.42,2023-08-03 11:43:21,23.648282,114.671583,34.51,0.05,0,0,20,1,4724.072385,114.670919,23.647761,0,0.23734,-1.570796
1.42,2023-08-03 11:43:21,23.648282,114.671583,34.51,0.05,0,0,20,1,4724.072385,114.670919,23.647761,0,0.23734,-1.570796
1.42,2023-08-03 11:43:21,23.648282,114.671583,34.51,0.05,0,0,20,1,4724.072385,114.670919,23.647761,0,0.23734,-1.570796
1.42,2023-08-03 11:43:21,23.648282,114.671583,34.51,0.05,0,0,20,1,4724.072385,114.670919,23.647761,0,0.23734,-1.570796
1.42,2023-08-03 11:43:21,23.648282,114.671583,34.51,0.05,0,0,20,1,4724.072385,114.670919,23.647761,0,0.23734,-1.570796
1.42,2023-08-03 11:43:21,23.648282,114.671583,34.51,0.05,0,0,20,1,4724.072385,114.670919,23.647761,0,0.23734,-1.570796
1.42,2023-08-03 11:43:21,23.648282,114.671583,34.51,0.05,0,0,20,1,4724.072385,114.670919,23.647761,0,0.23734,-1.570796
1.42,2023-08-03 11:43:21,23.648282,114.671583,34.51,0.05,0,0,20,1,4724.072385,114.670919,23.647761,0,0.23734,-1.570796
1.42,2023-08-03 11:43:21,23.648282,114.671583,34.51,0.05,0,0,20,1,4724.072385,114.670919,23.647761,0,0.23734,-1.570796
1.42,2023-08-03 11:43:21,23.648282,114.671583,34.51,0.05,0,0,20,1,4724.072385,114.670919,23.647761,0,0.23734,-1.570796
1.42,2023-08-03 11:43:21,23.648282,114.671583,34.51,0.05,0,0,20,1,4724.072385,114.670919,23.647761,0,0.23734,-1.570796
1.42,2023-08-03 11:43:21,23.648282,114.671583,34.51,0.05,0,0,20,1,4724.072385,114.670919,23.647761,0,0.23734,-1.570796
1.42,2023-08-03 11:43:21,23.648282,114.671583,34.51,0.05,0,0,20,1,4724.072385,114.670919,23.647761,0,0.23734,-1.570796
1.42,2023-08-03 11:43:21,23.648282,114.671583,34.51,0.05,0,0,20,1,4724.072385,114.670919,23.647761,0,0.23734,-1.570796
1.42,2023-08-03 11:43:21,23.648282,114.671583,34.51,0.05,0,0,20,1,4724.072385,114.670919,23.647761,0,0.23734,-1.570796
1.42,2023-08-03 11:43:21,23.648282,114.671583,34.51,0.05,0,0,20,1,4724.072385,114.670919,23.647761,0,0.23734,-1.570796
1.42,2023-08-03 11:43:21,23.648282,114.671583,34.51,0.05,0,0,20,1,4724.072385,114.670919,23.647761,0,0.23734,-1.570796
1.42,2023-08-03 11:43:21,23.648282,114.671583,34.51,0.05,0,0,20,1,4724.072385,114.670919,23.647761,0,0.23734,-1.570796
1.42,2023-08-03 11:43:21,23.648282,114.671583,34.51,0.05,0,0,20,1,4724.072385,114.670919,23.647761,0,0.23734,-1.570796
1.42,2023-08-03 11:43:21,23.648282,114.671583,34.51,0.05,0,0,20,1,4724.072385,114.670919,23.647761,0,0.23734,-1.570796
1.42,2023-08-03 11:43:21,23.648282,114.671583,34.51,0.05,0,0,20,1,4724.072385,114.670919,23.647761,0,0.23734,-1.570796
1.42,2023-08-03 11:43:21,23.648282,114.671583,34.51,0.05,0,0,20,1,4724.072385,114.670919,23.647761,0,0.23734,-1.570796
1.42,2023-08-03 11:43:21,23.648282,114.671583,34.51,0.05,0,0,20,1,4724.072385,114.670919,23.647761,0,0.23734,-1.570796
1.42,2023-08-03 11:43:21,23.648282,114.671583,34.51,0.05,0,0,20,1,4724.072385,114.670919,23.647761,0,0.23734,-1.570796
1.42,2023-08-03 11:43:21,23.648282,114.671583,34.51,0.05,0,0,20,1,4724.072385,114.670919,23.647761,0,0.23734,-1.570796
1.42,2023-08-03 11:43:21,23.648282,114.671583,34.51,0.05,0,0,20,1,4724.072385,114.670919,23.647761,0,0.23734,-1.570796
1.42,2023-08-03 11:43:21,23.648282,114.671583,34.51,0.05,0,0,20,1,4724.072385,114.670919,23.647761,0,0.23734,-1.570796
1.42,2023-08-03 11:43:21,23.648282,114.671583,34.51,0.05,0,0,20,1,4724.072385,114.670919,23.647761,0,0.23734,-1.570796
1.42,2023-08-03 11:43:21,23.648282,114.671583,34.51,0.05,0,0,20,1,4724.072385,114.670919,23.647761,0,0.23734,-1.570796
1.42,2023-08-03 11:43:21,23.648282,114.671583,34.51,0.05,0,0,20,1,4724.072385,114.670919,23.647761,0,0.23734,-1.570796
1.42,2023-08-03 11:43:21,23.648282,114.671583,34.51,0.05,0,0,20,1,4724.072385,114.670919,23.647761,0,0.23734,-1.570796
1.42,2023-08-03 11:43:21,23.648282,114.671583,34.51,0.05,0,0,20,1,4724.072385,114.670919,23.647761,0,0.23734,-1.570796
1.42,2023-08-03 11:43:21,23.648282,114.671583,34.51,0.05,0,0,20,1,4724.072385,114.670919,23.647761,0,0.23734,-1.570796
1.42,2023-08-03 11:43:21,23.648282,114.671583,34.51,0.05,0,0,20,1,4724.072385,114.670919,23.647761,0,0.23734,-1.570796
1.42,2023-08-03 11:43:21,23.648282,114.671583,34.51,0.05,0,0,20,1,4724.072385,114.670919,23.647761,0,0.23734,-1.570796
1.42,2023-08-03 11:43:21,23.648282,114.671583,34.51,0.05,0,0,20,1,4724.072385,114.670919,23.647761,0,0.23734,-1.570796
1.42,2023-08-03 11:43:21,23.648282,114.671583,34.51,0.05,0,0,20,1,4724.072385,114.670919,23.647761,0,0.23734,-1.570796
1.42,2023-08-03 11:43:21,23.648282,114.671583,34.51,0.05,0,0,20,1,4724.072385,114.670919,23.647761,0,0.23734,-1.570796
1.42,2023-08-03 11:43:21,23.648282,114.671583,34.51,0.05,0,0,20,1,4724.072385,114.670919,23.647761,0,0.23734,-1.570796
1.42,2023-08-03 11:43:21,23.648282,114.671583,34.51,0.05,0,0,20,1,4724.072385,114.670919,23.647761,0,0.23734,-1.570796
1.42,2023-08-03 11:43:21,23.648282,114.671583,34.51,0.05,0,0,20,1,4724.072385,114.670919,23.647761,0,0.23734,-1.570796
1.42,2023-08-03 11:43:21,23.648282,114.671583,34.51,0.05,0,0,20,1,4724.072385,114.670919,23.647761,0,0.23734,-1.570796
1.42,2023-08-03 11:43:21,23.648282,114.671583,34.51,0.05,0,0,20,1,4724.072385,114.670919,23.647761,0,0.23734,-1.570796
1.42,2023-08-03 11:43:21,23.648282,114.671583,34.51,0.05,0,0,20,1,4724.072385,114.670919,23.647761,0,0.23734,-1.570796
1.42,2023-08-03 11:43:21,23.648282,114.671583,34.51,0.05,0,0,20,1,4724.072385,114.670919,23.647761,0,0.23734,-1.570796
1.42,2023-08-03 11:43:21,23.648282,114.671583,34.51,0.05,0,0,20,1,4724.072385,114.670919,23.647761,0,0.23734,-1.570796
1.42,2023-08-03 11:43:21,23.648282,114.671583,34.51,0.05,0,0,20,1,4724.072385,114.670919,23.647761,0,0.23734,-1.570796
1.42,2023-08-03 11:43:21,23.648282,114.671583,34.51,0.05,0,0,20,1,4724.072385,114.670919,23.647761,0,0.23734,-1.570796
1.42,2023-08-03 11:43:21,23.648282,114.671583,34.51,0.05,0,0,20,1,4724.072385,114.670919,23.647761,0,0.23734,-1.570796
1.42,2023-08-03 11:43:21,23.648282,114.671583,34.51,0.05,0,0,20,1,4724.072385,114.670919,23.647761,0,0.23734,-1.570796
1.42,2023-08-03 11:43:21,23.648282,114.671583,34.51,0.05,0,0,20,1,4724.072385,114.670919,23.647761,0,0.23734,-1.570796
1.42,2023-08-03 11:43:21,23.648282,114.671583,34.51,0.05,0,0,20,1,4724.072385,114.670919,23.647761,0,0.23734,-1.570796
1.42,2023-08-03 11:43:21,23.648282,114.671583,34.51,0.05,0,0,20,1,4724.072385,114.670919,23.647761,0,0.23734,-1.570796
1.42,2023-08-03 11:43:21,23.648282,114.671583,34.51,0.05,0,0,20,1,4724.072385,114.670919,23.647761,0,0.23734,-1.570796
1.42,2023-08-03 11:43:21,23.648282,114.671583,34.51,0.05,0,0,20,1,4724.072385,114.670919,23.647761,0,0.23734,-1.570796
1.42,2023-08-03 11:43:21,23.648282,114.671583,34.51,0.05,0,0,20,1,4724.072385,114.670919,23.647761,0,0.23734,-1.570796
1.42,2023-08-03 11:43:21,23.648282,114.671583,34.51,0.05,0,0,20,1,4724.072385,114.670919,23.647761,0,0.23734,-1.570796
1.42,2023-08-03 11:43:21,23.648282,114.671583,34.51,0.05,0,0,20,1,4724.072385,114.670919,23.647761,0,0.23734,-1.570796
1.42,2023-08-03 11:43:21,23.648282,114.671583,34.51,0.05,0,0,20,1,4724.072385,114.670919,23.647761,0,0.23734,-1.570796
1.42,2023-08-03 11:43:21,23.648282,114.671583,34.51,0.05,0,0,20,1,4724.072385,114.670919,23.647761,0,0.23734,-1.570796
1.42,2023-08-03 11:43:21,23.648282,114.671583,34.51,0.05,0,0,20,1,4724.072385,114.670919,23.647761,0,0.23734,-1.570796
1.42,2023-08-03 11:43:21,23.648282,114.671583,34.51,0.05,0,0,20,1,4724.072385,114.670919,23.647761,0,0.23734,-1.570796
1.42,2023-08-03 11:43:21,23.648282,114.671583,34.51,0.05,0,0,20,1,4724.072385,114.670919,23.647761,0,0.23734,-1.570796
1.42,2023-08-03 11:43:21,23.648282,114.671583,34.51,0.05,0,0,20,1,4724.072385,114.670919,23.647761,0,0.23734,-1.570796
1.42,2023-08-03 11:43:21,23.648282,114.671583,34.51,0.05,0,0,20,1,4724.072385,114.670919,23.647761,0,0.23734,-1.570796
1.42,2023-08-03 11:43:21,23.648282,114.671583,34.51,0.05,0,0,20,1,4724.072385,114.670919,23.647761,0,0.23734,-1.570796
1.42,2023-08-03 11:43:21,23.648282,114.671583,34.51,0.05,0,0,20,1,4724.072385,114.670919,23.647761,0,0.23734,-1.570796
1.42,2023-08-03 11:43:21,23.648282,114.671583,34.51,0.05,0,0,20,1,4724.072385,114.670919,23.647761,0,0.23734,-1.570796
1.42,2023-08-03 11:43:21,23.648282,114.671583,34.51,0.05,0,0,20,1,4724.072385,114.670919,23.647761,0,0.23734,-1.570796
1.42,2023-08-03 11:43:21,23.648282,114.671583,34.51,0.05,0,0,20,1,4724.072385,114.670919,23.647761,0,0.23734,-1.570796
1.42,2023-08-03 11:43:21,23.648282,114.671583,34.51,0.05,0,0,20,1,4724.072385,114.670919,23.647761,0,0.23734,-1.570796
1.42,2023-08-03 11:43:21,23.648282,114.671583,34.51,0.05,0,0,20,1,4724.072385,114.670919,23.647761,0,0.23734,-1.570796
1.42,2023-08-03 11:43:21,23.648282,114.671583,34.51,0.05,0,0,20,1,4724.072385,114.670919,23.647761,0,0.23734,-1.570796
1.42,2023-08-03 11:43:21,23.648282,114.671583,34.51,0.05,0,0,20,1,4724.072385,114.670919,23.647761,0,0.23734,-1.570796
1.42,2023-08-03 11:43:21,23.648282,114.671583,34.51,0.05,0,0,20,1,4724.072385,114.670919,23.647761,0,0.23734,-1.570796
1.42,2023-08-03 11:43:21,23.648282,114.671583,34.51,0.05,0,0,20,1,4724.072385,114.670919,23.647761,0,0.23734,-1.570796
1.42,2023-08-03 11:43:21,23.648282,114.671583,34.51,0.05,0,0,20,1,4724.072385,114.670919,23.647761,0,0.23734,-1.570796
1.42,2023-08-03 11:43:21,23.648282,114.671583,34.51,0.05,0,0,20,1,4724.072385,114.670919,23.647761,0,0.23734,-1.570796
1.42,2023-08-03 11:43:21,23.648282,114.671583,34.51,0.05,0,0,20,1,4724.072385,114.670919,23.647761,0,0.23734,-1.570796
1.42,2023-08-03 11:43:21,23.648282,114.671583,34.51,0.05,0,0,20,1,4724.072385,114.670919,23.647761,0,0.23734,-1.570796
1.42,2023-08-03 11:43:21,23.648282,114.671583,34.51,0.05,0,0,20,1,4724.072385,114.670919,23.647761,0,0.23734,-1.570796
1.42,2023-08-03 11:43:21,23.648282,114.671583,34.51,0.05,0,0,20,1,4724.072385,114.670919,23.647761,0,0.23734,-1.570796
1.42,2023-08-03 11:43:21,23.648282,114.671583,34.51,0.05,0,0,20,1,4724.072385,114.670919,23.647761,0,0.23734,-1.570796
1.42,2023-08-03 11:43:21,23.648282,114.671583,34.51,0.05,0,0,20,1,4724.072385,114.670919,23.647761,0,0.23734,-1.570796
1.42,2023-08-03 11:43:21,23.648282,114.671583,34.51,0.05,0,0,20,1,4724.072385,114.670919,23.647761,0,0.23734,-1.570796
1.42,2023-08-03 11:43:21,23.648282,114.671583,34.51,0.05,0,0,20,1,4724.072385,114.670919,23.647761,0,0.23734,-1.570796
1.42,2023-08-03 11:43:21,23.648282,114.671583,34.51,0.05,0,0,20,1,4724.072385,114.670919,23.647761,0,0.23734,-1.570796
1.42,2023-08-03 11:43:21,23.648282,114.671583,34.51,0.05,0,0,20,1,4724.072385,114.670919,23.647761,0,0.23734,-1.570796
1.42,2023-08-03 11:43:21,23.648282,114.671583,34.51,0.05,0,0,20,1,4724.072385,114.670919,23.647761,0,0.23734,-1.570796
1.42,2023-08-03 11:43:21,23.648282,114.671583,34.51,0.05,0,0,20,1,4724.072385,114.670919,23.647761,0,0.23734,-1.570796
1.42,2023-08-03 11:43:21,23.648282,114.671583,34.51,0.05,0,0,20,1,4724.072385,114.670919,23.647761,0,0.23734,-1.570796
1.42,2023-08-03 11:43:21,23.648282,114.671583,34.51,0.05,0,0,20,1,4724.072385,114.670919,23.647761,0,0.23734,-1.570796
1.42,2023-08-03 11:43:21,23.648282,114.671583,34.51,0.05,0,0,20,1,4724.072385,114.670919,23.647761,0,0.23734,-1.570796
1.42,2023-08-03 11:43:21,23.648282,114.671583,34.51,0.05,0,0,20,1,4724.072385,114.670919,23.647761,0,0.23734,-1.570796
1.42,2023-08-03 11:43:21,23.648282,114.671583,34.51,0.05,0,0,20,1,4724.072385,114.670919,23.647761,0,0.23734,-1.570796
1.42,2023-08-03 11:43:21,23.648282,114.671583,34.51,0.05,0,0,20,1,4724.072385,114.670919,23.647761,0,0.23734,-1.570796
1.42,2023-08-03 11:43:21,23.648282,114.671583,34.51,0.05,0,0,20,1,4724.072385,114.670919,23.647761,0,0.23734,-1.570796
1.42,2023-08-03 11:43:21,23.648282,114.671583,34.51,0.05,0,0,20,1,4724.072385,114.670919,23.647761,0,0.23734,-1.570796
1.42,2023-08-03 11:43:21,23.648282,114.671583,34.51,0.05,0,0,20,1,4724.072385,114.670919,23.647761,0,0.23734,-1.570796
1.42,2023-08-03 11:43:21,23.648282,114.671583,34.51,0.05,0,0,20,1,4724.072385,114.670919,23.647761,0,0.23734,-1.570796
1.42,2023-08-03 11:43:21,23.648282,114.671583,34.51,0.05,0,0,20,1,4724.072385,114.670919,23.647761,0,0.23734,-1.570796
1.42,2023-08-03 11:43:21,23.648282,114.671583,34.51,0.05,0,0,20,1,4724.072385,114.670919,23.647761,0,0.23734,-1.570796
1.42,2023-08-03 11:43:21,23.648282,114.671583,34.51,0.05,0,0,20,1,4724.072385,114.670919,23.647761,0,0.23734,-1.570796
1.42,2023-08-03 11:43:21,23.648282,114.671583,34.51,0.05,0,0,20,1,4724.072385,114.670919,23.647761,0,0.23734,-1.570796
1.42,2023-08-03 11:43:21,23.648282,114.671583,34.51,0.05,0,0,20,1,4724.072385,114.670919,23.647761,0,0.23734,-1.570796
1.42,2023-08-03 11:43:21,23.648282,114.671583,34.51,0.05,0,0,20,1,4724.072385,114.670919,23.647761,0,0.23734,-1.570796
1.42,2023-08-03 11:43:21,23.648282,114.671583,34.51,0.05,0,0,20,1,4724.072385,114.670919,23.647761,0,0.23734,-1.570796
1.42,2023-08-03 11:43:21,23.648282,114.671583,34.51,0.05,0,0,20,1,4724.072385,114.670919,23.647761,0,0.23734,-1.570796
1.42,2023-08-03 11:43:21,23.648282,114.671583,34.51,0.05,0,0,20,1,4724.072385,114.670919,23.647761,0,0.23734,-1.570796
1.42,2023-08-03 11:43:21,23.648282,114.671583,34.51,0.05,0,0,20,1,4724.072385,114.670919,23.647761,0,0.23734,-1.570796
1.42,2023-08-03 11:43:21,23.648282,114.671583,34.51,0.05,0,0,20,1,4724.072385,114.670919,23.647761,0,0.23734,-1.570796
1.42,2023-08-03 11:43:21,23.648282,114.671583,34.51,0.05,0,0,20,1,4724.072385,114.670919,23.647761,0,0.23734,-1.570796
1.42,2023-08-03 11:43:21,23.648282,114.671583,34.51,0.05,0,0,20,1,4724.072385,114.670919,23.647761,0,0.23734,-1.570796
1.42,2023-08-03 11:43:21,23.648282,114.671583,34.51,0.05,0,0,20,1,4724.072385,114.670919,23.647761,0,0.23734,-1.570796
1.42,2023-08-03 11:43:21,23.648282,114.671583,34.51,0.05,0,0,20,1,4724.072385,114.670919,23.647761,0,0.23734,-1.570796
1.42,2023-08-03 11:43:21,23.648282,114.671583,34.51,0.05,0,0,20,1,4724.072385,114.670919,23.647761,0,0.23734,-1.570796
1.42,2023-08-03 11:43:21,23.648282,114.671583,34.51,0.05,0,0,20,1,4724.072385,114.670919,23.647761,0,0.23734,-1.570796
1.42,2023-08-03 11:43:21,23.648282,114.671583,34.51,0.05,0,0,20,1,4724.072385,114.670919,23.647761,0,0.23734,-1.570796
1.42,2023-08-03 11:43:21,23.648282,114.671583,34.51,0.05,0,0,20,1,4724.072385,114.670919,23.647761,0,0.23734,-1.570796
1.42,2023-08-03 11:43:21,23.648282,114.671583,34.51,0.05,0,0,20,1,4724.072385,114.670919,23.647761,0,0.23734,-1.570796
1.42,2023-08-03 11:43:21,23.648282,114.671583,34.51,0.05,0,0,20,1,4724.072385,114.670919,23.647761,0,0.23734,-1.570796
1.42,2023-08-03 11:43:21,23.648282,114.671583,34.51,0.05,0,0,20,1,4724.072385,114.670919,23.647761,0,0.23734,-1.570796
1.42,2023-08-03 11:43:21,23.648282,114.671583,34.51,0.05,0,0,20,1,4724.072385,114.670919,23.647761,0,0.23734,-1.570796
1.42,2023-08-03 11:43:21,23.648282,114.671583,34.51,0.05,0,0,20,1,4724.072385,114.670919,23.647761,0,0.23734,-1.570796
1.42,2023-08-03 11:43:21,23.648282,114.671583,34.51,0.05,0,0,20,1,4724.072385,114.670919,23.647761,0,0.23734,-1.570796
1.42,2023-08-03 11:43:21,23.648282,114.671583,34.51,0.05,0,0,20,1,4724.072385,114.670919,23.647761,0,0.23734,-1.570796
1.42,2023-08-03 11:43:21,23.648282,114.671583,34.51,0.05,0,0,20,1,4724.072385,114.670919,23.647761,0,0.23734,-1.570796
1.42,2023-08-03 11:43:21,23.648282,114.671583,34.51,0.05,0,0,20,1,4724.072385,114.670919,23.647761,0,0.23734,-1.570796
1.42,2023-08-03 11:43:21,23.648282,114.671583,34.51,0.05,0,0,20,1,4724.072385,114.670919,23.647761,0,0.23734,-1.570796
1.42,2023-08-03 11:43:21,23.648282,114.671583,34.51,0.05,0,0,20,1,4724.072385,114.670919,23.647761,0,0.23734,-1.570796
1.42,2023-08-03 11:43:21,23.648282,114.671583,34.51,0.05,0,0,20,1,4724.072385,114.670919,23.647761,0,0.23734,-1.570796
1.42,2023-08-03 11:43:21,23.648282,114.671583,34.51,0.05,0,0,20,1,4724.072385,114.670919,23.647761,0,0.23734,-1.570796
1.42,2023-08-03 11:43:21,23.648282,114.671583,34.51,0.05,0,0,20,1,4724.072385,114.670919,23.647761,0,0.23734,-1.570796
1.42,2023-08-03 11:43:21,23.648282,114.671583,34.51,0.05,0,0,20,1,4724.072385,114.670919,23.647761,0,0.23734,-1.570796
1.42,2023-08-03 11:43:21,23.648282,114.671583,34.51,0.05,0,0,20,1,4724.072385,114.670919,23.647761,0,0.23734,-1.570796
1.42,2023-08-03 11:43:21,23.648282,114.671583,34.51,0.05,0,0,20,1,4724.072385,114.670919,23.647761,0,0.23734,-1.570796
1.42,2023-08-03 11:43:21,23.648282,114.671583,34.51,0.05,0,0,20,1,4724.072385,114.670919,23.647761,0,0.23734,-1.570795
1.42,2023-08-03 11:43:21,23.648282,114.671583,34.51,0.05,0,0,20,1,4724.072385,114.670919,23.647761,0,0.23734,-1.570794
1.42,2023-08-03 11:43:21,23.648282,114.671583,34.51,0.05,0,0,20,1,4724.072385,114.670919,23.647761,0,0.23734,-1.570793
1.42,2023-08-03 11:43:21,23.648282,114.671583,34.51,0.05,0,0,20,1,4724.072384,114.670919,23.647761,0,0.23734,-1.570791
1.42,2023-08-03 11:43:21,23.648282,114.671583,34.51,0.05,0,0,20,1,4724.072384,114.670919,23.64776,0,0.23734,-1.570788
1.42,2023-08-03 11:43:21,23.648282,114.671583,34.51,0.05,0,0,20,1,4724.072382,114.670919,23.64776,0,0.23734,-1.570785
1.42,2023-08-03 11:43:21,23.648282,114.671583,34.51,0.05,0,0,20,1,4724.072381,114.670919,23.64776,0,0.23734,-1.570781
1.42,2023-08-03 11:43:21,23.648282,114.671583,34.51,0.05,0,0,20,1,4724.072378,114.670918,23.64776,0,0.23734,-1.570777
1.42,2023-08-03 11:43:21,23.648282,114.671583,34.51,0.05,0,0,20,1,4724.072375,114.670918,23.64776,0,0.23734,-1.570771
1.42,2023-08-03 11:43:21,23.648282,114.671583,34.51,0.05,0,0,20,1,4724.07237,114.670918,23.647759,0,0.23734,-1.570765
1.42,2023-08-03 11:43:21,23.648282,114.671583,34.51,0.05,0,0,20,1,4724.072363,114.670918,23.647759,0,0.23734,-1.570757
1.42,2023-08-03 11:43:21,23.648282,114.671583,34.51,0.05,0,0,20,1,4724.072354,114.670918,23.647759,0,0.23734,-1.570748
1.42,2023-08-03 11:43:21,23.648282,114.671583,34.51,0.05,0,0,20,1,4724.072343,114.670918,23.647758,0,0.23734,-1.570739
1.42,2023-08-03 11:43:21,23.648282,114.671583,34.51,0.05,0,0,20,1,4724.072328,114.670918,23.647758,0,0.23734,-1.570727
1.42,2023-08-03 11:43:21,23.648282,114.671583,34.51,0.05,0,0,20,1,4724.07231,114.670918,23.647757,0,0.23734,-1.570715
1.42,2023-08-03 11:43:21,23.648282,114.671583,34.51,0.05,0,0,20,1,4724.072287,114.670918,23.647757,0,0.23734,-1.570701
1.42,2023-08-03 11:43:21,23.648282,114.671583,34.51,0.05,0,0,20,1,4724.072259,114.670917,23.647756,0,0.23734,-1.570685
1.42,2023-08-03 11:43:21,23.648282,114.671583,34.51,0.05,0,0,20,1,4724.072226,114.670917,23.647755,0,0.23734,-1.570668
1.42,2023-08-03 11:43:21,23.648282,114.671583,34.51,0.05,0,0,20,1,4724.072185,114.670917,23.647755,0,0.23734,-1.57065
1.42,2023-08-03 11:43:21,23.648282,114.671583,34.51,0.05,0,0,20,1,4724.072136,114.670917,23.647754,0,0.23734,-1.570629
1.42,2023-08-03 11:43:21,23.648282,114.671583,34.51,0.05,0,0,20,1,4724.072078,114.670917,23.647753,0,0.23734,-1.570607
1.42,2023-08-03 11:43:21,23.648282,114.671583,34.51,0.05,0,0,20,1,4724.07201,114.670916,23.647752,0,0.23734,-1.570583
1.42,2023-08-03 11:43:22,23.648282,114.671583,34.51,0.05,0,0,20,1,4724.071931,114.670916,23.647751,0,0.23734,-1.570557
1.42,2023-08-03 11:43:23,23.648282,114.671583,34.51,0.05,0,0,20,1,4724.071838,114.670916,23.64775,0,0.23734,-1.570529
1.42,2023-08-03 11:43:24,23.648282,114.671583,34.51,0.05,0,0,20,1,4724.071732,114.670915,23.647748,0,0.23734,-1.570498
1.42,2023-08-03 11:43:25,23.648282,114.671583,34.51,0.05,0,0,20,1,4724.071608,114.670915,23.647747,0,0.23734,-1.570466
1.42,2023-08-03 11:43:26,23.648282,114.671583,34.51,0.05,0,0,20,1,4724.071468,114.670915,23.647746,0,0.23734,-1.570431
1.42,2023-08-03 11:43:27,23.648282,114.671583,34.51,0.05,0,0,20,1,4724.071307,114.670914,23.647744,0,0.23734,-1.570394
1.42,2023-08-03 11:43:28,23.648282,114.671583,34.51,0.05,0,0,20,1,4724.071124,114.670914,23.647743,0,0.23734,-1.570354
1.42,2023-08-03 11:43:29,23.648282,114.671583,34.51,0.05,0,0,20,1,4724.070918,114.670913,23.647741,0,0.23734,-1.570312
1.42,2023-08-03 11:43:30,23.648282,114.671583,34.51,0.05,0,0,20,1,4724.070686,114.670913,23.647739,0,0.23734,-1.570267
1.42,2023-08-03 11:43:31,23.648282,114.671583,34.51,0.05,0,0,20,1,4724.070425,114.670912,23.647737,0,0.23734,-1.57022
1.42,2023-08-03 11:43:32,23.648282,114.671583,34.51,0.05,0,0,20,1,4724.070132,114.670912,23.647735,0,0.23734,-1.57017
1.42,2023-08-03 11:43:33,23.648282,114.671583,34.51,0.05,0,0,20,1,4724.069806,114.670911,23.647733,0,0.23734,-1.570117
1.42,2023-08-03 11:43:34,23.648282,114.671583,34.51,0.05,0,0,20,1,4724.069444,114.670911,23.647731,0,0.23734,-1.570061
1.42,2023-08-03 11:43:35,23.648282,114.671583,34.51,0.05,0,0,20,1,4724.069041,114.67091,23.647728,0,0.23734,-1.570003
1.42,2023-08-03 11:43:36,23.648282,114.671583,34.51,0.05,0,0,20,1,4724.068596,114.670909,23.647726,0,0.23734,-1.569941
1.42,2023-08-03 11:43:37,23.648282,114.671583,34.51,0.05,0,0,20,1,4724.068104,114.670909,23.647723,0,0.23734,-1.569876
1.42,2023-08-03 11:43:38,23.648282,114.671583,34.51,0.05,0,0,20,1,4724.067563,114.670908,23.64772,0,0.23734,-1.569808
1.42,2023-08-03 11:43:39,23.648282,114.671583,34.51,0.05,0,0,20,1,4724.066968,114.670907,23.647717,0,0.23734,-1.569736
1.42,2023-08-03 11:43:40,23.648282,114.671583,34.51,0.05,0,0,20,1,4724.066316,114.670906,23.647714,0,0.23734,-1.569661
1.42,2023-08-03 11:43:41,23.648282,114.671583,34.51,0.05,0,0,20,1,4724.065602,114.670905,23.647711,0,0.23734,-1.569583
1.42,2023-08-03 11:43:42,23.648282,114.671583,34.51,0.05,0,0,20,1,4724.064823,114.670905,23.647707,0,0.23734,-1.569501
1.42,2023-08-03 11:43:43,23.648282,114.671583,34.51,0.05,0,0,20,1,4724.063975,114.670904,23.647704,0,0.23734,-1.569416
1.42,2023-08-03 11:43:44,23.648282,114.671583,34.51,0.05,0,0,20,1,4724.063051,114.670903,23.6477,0,0.23734,-1.569327
1.42,2023-08-03 11:43:45,23.648282,114.671583,34.51,0.05,0,0,20,1,4724.062048,114.670902,23.647696,0,0.23734,-1.569234
1.42,2023-08-03 11:43:46,23.648282,114.671583,34.51,0.05,0,0,20,1,4724.060961,114.670901,23.647693,0,0.23734,-1.569137
1.42,2023-08-03 11:43:47,23.648282,114.671583,34.51,0.05,0,0,20,1,4724.059784,114.670899,23.647688,0,0.23734,-1.569037
1.42,2023-08-03 11:43:48,23.648282,114.671583,34.51,0.05,0,0,20,1,4724.058512,114.670898,23.647684,0,0.23734,-1.568933
1.42,2023-08-03 11:43:49,23.648282,114.671583,34.51,0.05,0,0,20,1,4724.057139,114.670897,23.64768,0,0.23734,-1.568824
1.42,2023-08-03 11:43:50,23.648282,114.671583,34.51,0.05,0,0,20,1,4724.05566,114.670896,23.647675,0,0.23734,-1.568712
1.42,2023-08-03 11:43:51,23.648282,114.671583,34.51,0.05,0,0,20,1,4724.054068,114.670895,23.64767,0,0.23734,-1.568596
1.42,2023-08-03 11:43:52,23.648282,114.671583,34.51,0.05,0,0,20,1,4724.052357,114.670893,23.647665,0,0.23734,-1.568477
1.42,2023-08-03 11:43:53,23.648282,114.671583,34.51,0.05,0,0,20,1,4724.050521,114.670892,23.64766,0,0.23734,-1.568353
1.42,2023-08-03 11:43:54,23.648282,114.671583,34.51,0.05,0,0,20,1,4724.048553,114.670891,23.647655,0,0.23734,-1.568225
1.42,2023-08-03 11:43:55,23.648282,114.671583,34.51,0.05,0,0,20,1,4724.046446,114.670889,23.64765,0,0.23734,-1.568094
1.42,2023-08-03 11:43:56,23.648282,114.671583,34.51,0.05,0,0,20,1,4724.044193,114.670888,23.647644,0,0.23734,-1.567959
1.42,2023-08-03 11:43:57,23.648282,114.671583,34.51,0.05,0,0,20,1,4724.041787,114.670886,23.647638,0,0.23734,-1.56782
1.42,2023-08-03 11:43:58,23.648282,114.671583,34.51,0.05,0,0,20,1,4724.03922,114.670885,23.647632,0,0.23734,-1.567677
1.42,2023-08-03 11:43:59,23.648282,114.671583,34.51,0.05,0,0,20,1,4724.036484,114.670883,23.647626,0,0.23734,-1.56753
1.42,2023-08-03 11:44:00,23.648282,114.671583,34.51,0.05,0,0,20,1,4724.033572,114.670881,23.64762,0,0.23734,-1.567379
1.42,2023-08-03 11:44:01,23.648282,114.671583,34.51,0.05,0,0,20,1,4724.030475,114.67088,23.647614,0,0.23734,-1.567225
1.42,2023-08-03 11:44:02,23.648282,114.671583,34.51,0.05,0,0,20,1,4724.027185,114.670878,23.647607,0,0.23734,-1.567066
1.42,2023-08-03 11:44:03,23.648282,114.671583,34.51,0.05,0,0,20,1,4724.023694,114.670876,23.647601,0,0.23734,-1.566904
1.42,2023-08-03 11:44:04,23.648282,114.671583,34.51,0.05,0,0,20,1,4724.019993,114.670874,23.647594,0,0.23734,-1.566738
1.42,2023-08-03 11:44:05,23.648282,114.671583,34.51,0.05,0,0,20,1,4724.016072,114.670872,23.647587,0,0.23734,-1.566568
1.42,2023-08-03 11:44:06,23.648282,114.671583,34.51,0.05,0,0,20,1,4724.011923,114.67087,23.64758,0,0.23734,-1.566394
1.42,2023-08-03 11:44:07,23.648282,114.671583,34.51,0.05,0,0,20,1,4724.007535,114.670869,23.647572,0,0.23734,-1.566216
1.42,2023-08-03 11:44:08,23.648282,114.671583,34.51,0.05,0,0,20,1,4724.002901,114.670867,23.647565,0,0.23734,-1.566034
1.42,2023-08-03 11:44:09,23.648282,114.671583,34.51,0.05,0,0,20,1,4723.998009,114.670865,23.647557,0,0.23734,-1.565849
1.42,2023-08-03 11:44:10,23.648282,114.671583,34.51,0.05,0,0,20,1,4723.99285,114.670862,23.647549,0,0.23734,-1.565659
1.42,2023-08-03 11:44:11,23.648282,114.671583,34.51,0.05,0,0,20,1,4723.987413,114.67086,23.647542,0,0.23734,-1.565466
1.42,2023-08-03 11:44:12,23.648282,114.671583,34.51,0.05,0,0,20,1,4723.981689,114.670858,23.647533,0,0.23734,-1.565269
1.42,2023-08-03 11:44:13,23.648282,114.671583,34.51,0.05,0,0,20,1,4723.975665,114.670856,23.647525,0,0.23734,-1.565068
1.42,2023-08-03 11:44:14,23.648282,114.671583,34.51,0.05,0,0,20,1,4723.969333,114.670854,23.647517,0,0.23734,-1.564863
1.42,2023-08-03 11:44:15,23.648282,114.671583,34.51,0.05,0,0,20,1,4723.962679,114.670851,23.647508,0,0.23734,-1.564655
1.42,2023-08-03 11:44:16,23.648282,114.671583,34.51,0.05,0,0,20,1,4723.955694,114.670849,23.647499,0,0.23734,-1.564442
1.42,2023-08-03 11:44:17,23.648282,114.671583,34.51,0.05,0,0,20,1,4723.948366,114.670847,23.647491,0,0.23734,-1.564226
1.42,2023-08-03 11:44:18,23.648282,114.671583,34.51,0.05,0,0,20,1,4723.940683,114.670844,23.647481,0,0.23734,-1.564005
1.42,2023-08-03 11:44:19,23.648282,114.671583,34.51,0.05,0,0,20,1,4723.932633,114.670842,23.647472,0,0.23734,-1.563781
1.42,2023-08-03 11:44:20,23.648282,114.671583,34.51,0.05,0,0,20,1,4723.924204,114.670839,23.647463,0,0.23734,-1.563553
1.42,2023-08-03 11:44:21,23.648282,114.671583,34.51,0.05,0,0,20,1,4723.915383,114.670837,23.647453,0,0.23734,-1.563321
1.42,2023-08-03 11:44:22,23.648282,114.671583,34.51,0.05,0,0,20,1,4723.906159,114.670834,23.647444,0,0.23734,-1.563086
1.42,2023-08-03 11:44:23,23.648282,114.671583,34.51,0.05,0,0,20,1,4723.896518,114.670832,23.647434,0,0.23734,-1.562846
1.42,2023-08-03 11:44:24,23.648282,114.671583,34.51,0.05,0,0,20,1,4723.886448,114.670829,23.647424,0,0.23734,-1.562603
1.42,2023-08-03 11:44:25,23.648282,114.671583,34.51,0.05,0,0,20,1,4723.875935,114.670826,23.647414,0,0.23734,-1.562355
1.42,2023-08-03 11:44:26,23.648282,114.671583,34.51,0.05,0,0,20,1,4723.864966,114.670824,23.647403,0,0.23734,-1.562104
1.42,2023-08-03 11:44:27,23.648282,114.671583,34.51,0.05,0,0,20,1,4723.853528,114.670821,23.647393,0,0.23734,-1.561849
1.42,2023-08-03 11:44:28,23.648282,114.671583,34.51,0.05,0,0,20,1,4723.841606,114.670818,23.647382,0,0.23734,-1.56159
1.42,2023-08-03 11:44:29,23.648282,114.671583,34.51,0.05,0,0,20,1,4723.829187,114.670815,23.647371,0,0.23734,-1.561327
1.42,2023-08-03 11:44:30,23.648282,114.671583,34.51,0.05,0,0,20,1,4723.816256,114.670812,23.64736,0,0.23734,-1.561061
1.42,2023-08-03 11:44:31,23.648282,114.671583,34.51,0.05,0,0,20,1,4723.802799,114.670809,23.647349,0,0.23734,-1.56079
1.42,2023-08-03 11:44:32,23.648282,114.671583,34.51,0.05,0,0,20,1,4723.788802,114.670806,23.647338,0,0.23734,-1.560516
1.42,2023-08-03 11:44:33,23.648282,114.671583,34.51,0.05,0,0,20,1,4723.774249,114.670803,23.647326,0,0.23734,-1.560237
1.42,2023-08-03 11:44:34,23.648282,114.671583,34.51,0.05,0,0,20,1,4723.759127,114.6708,23.647315,0,0.23734,-1.559955
1.42,2023-08-03 11:44:35,23.648282,114.671583,34.51,0.05,0,0,20,1,4723.743418,114.670797,23.647303,0,0.23734,-1.559669
1.42,2023-08-03 11:44:36,23.648282,114.671583,34.51,0.05,0,0,20,1,4723.727108,114.670794,23.647291,0,0.23734,-1.55938
1.42,2023-08-03 11:44:37,23.648282,114.671583,34.51,0.05,0,0,20,1,4723.710182,114.670791,23.647279,0,0.23734,-1.559086
1.42,2023-08-03 11:44:38,23.648282,114.671583,34.51,0.05,0,0,20,1,4723.692623,114.670787,23.647267,0,0.23734,-1.558788
1.42,2023-08-03 11:44:39,23.648282,114.671583,34.51,0.05,0,0,20,1,4723.674415,114.670784,23.647254,0,0.23734,-1.558487
1.42,2023-08-03 11:44:40,23.648282,114.671583,34.51,0.05,0,0,20,1,4723.655543,114.670781,23.647242,0,0.23734,-1.558182
1.42,2023-08-03 11:44:41,23.648282,114.671583,34.51,0.05,0,0,20,1,4723.635989,114.670777,23.647229,0,0.23734,-1.557872
1.42,2023-08-03 11:44:42,23.648282,114.671583,34.51,0.05,0,0,20,1,4723.615737,114.670774,23.647216,0,0.23734,-1.557559
1.42,2023-08-03 11:44:43,23.648282,114.671583,34.51,0.05,0,0,20,1,4723.594769,114.67077,23.647203,0,0.23734,-1.557242
1.42,2023-08-03 11:44:44,23.648282,114.671583,34.51,0.05,0,0,20,1,4723.57307,114.670767,23.64719,0,0.23734,-1.556922
1.42,2023-08-03 11:44:45,23.648282,114.671583,34.51,0.05,0,0,20,1,4723.550621,114.670763,23.647177,0,0.23734,-1.556597
1.42,2023-08-03 11:44:46,23.648282,114.671583,34.51,0.05,0,0,20,1,4723.527405,114.67076,23.647163,0,0.23734,-1.556269
1.42,2023-08-03 11:44:47,23.648282,114.671583,34.51,0.05,0,0,20,1,4723.503405,114.670756,23.64715,0,0.23734,-1.555936
1.42,2023-08-03 11:44:48,23.648282,114.671583,34.51,0.05,0,0,20,1,4723.478601,114.670752,23.647136,0,0.23734,-1.5556
1.42,2023-08-03 11:44:49,23.648282,114.671583,34.51,0.05,0,0,20,1,4723.452977,114.670749,23.647122,0,0.23734,-1.55526
1.42,2023-08-03 11:44:50,23.648282,114.671583,34.51,0.05,0,0,20,1,4723.426514,114.670745,23.647108,0,0.23734,-1.554916
1.42,2023-08-03 11:44:51,23.648282,114.671583,34.51,0.05,0,0,20,1,4723.399192,114.670741,23.647093,0,0.23734,-1.554568
1.42,2023-08-03 11:44:52,23.648282,114.671583,34.51,0.05,0,0,20,1,4723.370995,114.670737,23.647079,0,0.23734,-1.554216
1.42,2023-08-03 11:44:53,23.648282,114.671583,34.51,0.05,0,0,20,1,4723.341901,114.670733,23.647064,0,0.23734,-1.553861
1.42,2023-08-03 11:44:54,23.648282,114.671583,34.51,0.05,0,0,20,1,4723.311893,114.670729,23.647049,0,0.23734,-1.553502
1.42,2023-08-03 11:44:55,23.648282,114.671583,34.51,0.05,0,0,20,1,4723.280951,114.670725,23.647035,0,0.23734,-1.553138
1.42,2023-08-03 11:44:56,23.648282,114.671583,34.51,0.05,0,0,20,1,4723.249055,114.670721,23.647019,0,0.23734,-1.552771
1.42,2023-08-03 11:44:57,23.648282,114.671583,34.51,0.05,0,0,20,1,4723.216185,114.670717,23.647004,0,0.23734,-1.5524
1.42,2023-08-03 11:44:58,23.648282,114.671583,34.51,0.05,0,0,20,1,4723.182322,114.670713,23.646989,0,0.23734,-1.552025
1.42,2023-08-03 11:44:59,23.648282,114.671583,34.51,0.05,0,0,20,1,4723.147444,114.670709,23.646973,0,0.23734,-1.551647
1.42,2023-08-03 11:45:00,23.648282,114.671583,34.51,0.05,0,0,20,1,4723.111533,114.670705,23.646957,0,0.23734,-1.551264
1.42,2023-08-03 11:45:01,23.648282,114.671583,34.51,0.05,0,0,20,1,4723.074566,114.670701,23.646942,0,0.23734,-1.550878
1.42,2023-08-03 11:45:02,23.648282,114.671583,34.51,0.05,0,0,20,1,4723.036524,114.670696,23.646926,0,0.23734,-1.550487
1.42,2023-08-03 11:45:03,23.648282,114.671583,34.51,0.05,0,0,20,1,4722.997384,114.670692,23.646909,0,0.23734,-1.550093
1.42,2023-08-03 11:45:04,23.648282,114.671583,34.51,0.05,0,0,20,1,4722.957127,114.670688,23.646893,0,0.23734,-1.549695
1.42,2023-08-03 11:45:05,23.648282,114.671583,34.51,0.05,0,0,20,1,4722.915729,114.670683,23.646876,0,0.23734,-1.549293
1.42,2023-08-03 11:45:06,23.648282,114.671583,34.51,0.05,0,0,20,1,4722.873171,114.670679,23.64686,0,0.23734,-1.548887
1.42,2023-08-03 11:45:07,23.648282,114.671583,34.51,0.05,0,0,20,1,4722.829429,114.670674,23.646843,0,0.23734,-1.548478
1.42,2023-08-03 11:45:08,23.648282,114.671583,34.51,0.05,0,0,20,1,4722.784481,114.67067,23.646826,0,0.23734,-1.548064
1.42,2023-08-03 11:45:09,23.648282,114.671583,34.51,0.05,0,0,20,1,4722.738306,114.670665,23.646809,0,0.23734,-1.547647
1.42,2023-08-03 11:45:10,23.648282,114.671583,34.51,0.05,0,0,20,1,4722.69088,114.670661,23.646791,0,0.23734,-1.547226
1.42,2023-08-03 11:45:11,23.648282,114.671583,34.51,0.05,0,0,20,1,4722.642181,114.670656,23.646774,0,0.23734,-1.5468
1.42,2023-08-03 11:45:12,23.648282,114.671583,34.51,0.05,0,0,20,1,4722.592187,114.670651,23.646756,0,0.23734,-1.546371
1.42,2023-08-03 11:45:13,23.648282,114.671583,34.51,0.05,0,0,20,1,4722.540873,114.670647,23.646739,0,0.23734,-1.545939
1.42,2023-08-03 11:45:14,23.648282,114.671583,34.51,0.05,0,0,20,1,4722.488217,114.670642,23.646721,0,0.23734,-1.545502
1.42,2023-08-03 11:45:15,23.648282,114.671583,34.51,0.05,0,0,20,1,4722.434195,114.670637,23.646702,0,0.23734,-1.545061
1.42,2023-08-03 11:45:16,23.648282,114.671583,34.51,0.05,0,0,20,1,4722.378782,114.670632,23.646684,0,0.23734,-1.544617
1.42,2023-08-03 11:45:17,23.648282,114.671583,34.51,0.05,0,0,20,1,4722.321957,114.670627,23.646666,0,0.23734,-1.544169
1.42,2023-08-03 11:45:18,23.648282,114.671583,34.51,0.05,0,0,20,1,4722.263692,114.670622,23.646647,0,0.23734,-1.543717
1.42,2023-08-03 11:45:19,23.648282,114.671583,34.51,0.05,0,0,20,1,4722.203966,114.670617,23.646628,0,0.23734,-1.543261
1.42,2023-08-03 11:45:20,23.648282,114.671583,34.51,0.05,0,0,20,1,4722.142753,114.670612,23.64661,0,0.23734,-1.542801
1.42,2023-08-03 11:45:21,23.648282,114.671583,34.51,0.05,0,0,20,1,4722.080027,114.670607,23.64659,0,0.23734,-1.542337
1.42,2023-08-03 11:45:22,23.648282,114.671583,34.51,0.05,0,0,20,1,4722.015765,114.670602,23.646571,0,0.23734,-1.541869
1.42,2023-08-03 11:45:23,23.648282,114.671583,34.51,0.05,0,0,20,1,4721.949941,114.670597,23.646552,0,0.23734,-1.541398
1.42,2023-08-03 11:45:24,23.648282,114.671583,34.51,0.05,0,0,20,1,4721.882529,114.670592,23.646532,0,0.23734,-1.540923
1.42,2023-08-03 11:45:25,23.648282,114.671583,34.51,0.05,0,0,20,1,4721.813503,114.670587,23.646513,0,0.23734,-1.540443
1.42,2023-08-03 11:45:26,23.648282,114.671583,34.51,0.05,0,0,20,1,4721.742839,114.670581,23.646493,0,0.23734,-1.53996
1.42,2023-08-03 11:45:27,23.648282,114.671583,34.51,0.05,0,0,20,1,4721.67051,114.670576,23.646473,0,0.23734,-1.539473
1.42,2023-08-03 11:45:28,23.648282,114.671583,34.51,0.05,0,0,20,1,4721.596489,114.670571,23.646453,0,0.23734,-1.538983
1.42,2023-08-03 11:45:29,23.648282,114.671583,34.51,0.05,0,0,20,1,4721.52075,114.670565,23.646432,0,0.23734,-1.538488
1.42,2023-08-03 11:45:30,23.648282,114.671583,34.51,0.05,0,0,20,1,4721.443267,114.67056,23.646412,0,0.23734,-1.537989
1.42,2023-08-03 11:45:31,23.648282,114.671583,34.51,0.05,0,0,20,1,4721.364012,114.670554,23.646391,0,0.23734,-1.537487
1.42,2023-08-03 11:45:32,23.648282,114.671583,34.51,0.05,0,0,20,1,4721.282959,114.670549,23.64637,0,0.23734,-1.536981
1.42,2023-08-03 11:45:33,23.648282,114.671583,34.51,0.05,0,0,20,1,4721.20008,114.670543,23.646349,0,0.23734,-1.536471
1.42,2023-08-03 11:45:34,23.648282,114.671583,34.51,0.05,0,0,20,1,4721.115347,114.670537,23.646328,0,0.23734,-1.535957
1.42,2023-08-03 11:45:35,23.648282,114.671583,34.51,0.05,0,0,20,1,4721.028733,114.670532,23.646307,0,0.23734,-1.535439
1.42,2023-08-03 11:45:36,23.648282,114.671583,34.51,0.05,0,0,20,1,4720.94021,114.670526,23.646285,0,0.23734,-1.534917
1.42,2023-08-03 11:45:37,23.648282,114.671583,34.51,0.05,0,0,20,1,4720.84975,114.67052,23.646264,0,0.23734,-1.534391
1.42,2023-08-03 11:45:38,23.648282,114.671583,34.51,0.05,0,0,20,1,4720.757325,114.670515,23.646242,0,0.23734,-1.533862
1.42,2023-08-03 11:45:39,23.648282,114.671583,34.51,0.05,0,0,20,1,4720.662905,114.670509,23.64622,0,0.23734,-1.533329
1.42,2023-08-03 11:45:40,23.648282,114.671583,34.51,0.05,0,0,20,1,4720.566462,114.670503,23.646198,0,0.23734,-1.532792
1.42,2023-08-03 11:45:41,23.648282,114.671583,34.51,0.05,0,0,20,1,4720.467968,114.670497,23.646176,0,0.23734,-1.532251
1.42,2023-08-03 11:45:42,23.648282,114.671583,34.51,0.05,0,0,20,1,4720.367393,114.670491,23.646153,0,0.23734,-1.531706
1.42,2023-08-03 11:45:43,23.648282,114.671583,34.51,0.05,0,0,20,1,4720.264707,114.670485,23.646131,0,0.23734,-1.531157
1.42,2023-08-03 11:45:44,23.648282,114.671583,34.51,0.05,0,0,20,1,4720.159881,114.670479,23.646108,0,0.23734,-1.530604
1.42,2023-08-03 11:45:45,23.648282,114.671583,34.51,0.05,0,0,20,1,4720.052886,114.670473,23.646085,0,0.23734,-1.530048
1.42,2023-08-03 11:45:46,23.648282,114.671583,34.51,0.05,0,0,20,1,4719.94369,114.670467,23.646062,0,0.23734,-1.529487
1.42,2023-08-03 11:45:47,23.648282,114.671583,34.51,0.05,0,0,20,1,4719.832265,114.670461,23.646039,0,0.23734,-1.528923
1.42,2023-08-03 11:45:48,23.648282,114.671583,34.51,0.05,0,0,20,1,4719.718579,114.670454,23.646016,0,0.23734,-1.528355
1.42,2023-08-03 11:45:49,23.648282,114.671583,34.51,0.05,0,0,20,1,4719.602603,114.670448,23.645992,0,0.23734,-1.527783
1.42,2023-08-03 11:45:50,23.648282,114.671583,34.51,0.05,0,0,20,1,4719.484304,114.670442,23.645969,0,0.23734,-1.527207
1.42,2023-08-03 11:45:51,23.648282,114.671583,34.51,0.05,0,0,20,1,4719.363653,114.670435,23.645945,0,0.23734,-1.526628
1.42,2023-08-03 11:45:52,23.648282,114.671583,34.51,0.05,0,0,20,1,4719.240617,114.670429,23.645921,0,0.23734,-1.526044
1.42,2023-08-03 11:45:53,23.648282,114.671583,34.51,0.05,0,0,20,1,4719.115166,114.670423,23.645897,0,0.23734,-1.525457
1.42,2023-08-03 11:45:54,23.648282,114.671583,34.51,0.05,0,0,20,1,4718.987268,114.670416,23.645872,0,0.23734,-1.524865
1.42,2023-08-03 11:45:55,23.648282,114.671583,34.51,0.05,0,0,20,1,4718.856891,114.67041,23.645848,0,0.23734,-1.52427
1.42,2023-08-03 11:45:56,23.648282,114.671583,34.51,0.05,0,0,20,1,4718.724002,114.670403,23.645823,0,0.23734,-1.523671
1.42,2023-08-03 11:45:57,23.648282,114.671583,34.51,0.05,0,0,20,1,4718.58857,114.670397,23.645799,0,0.23734,-1.523068
1.42,2023-08-03 11:45:58,23.648282,114.671583,34.51,0.05,0,0,20,1,4718.450562,114.67039,23.645774,0,0.23734,-1.522462
1.42,2023-08-03 11:45:59,23.648282,114.671583,34.51,0.05,0,0,20,1,4718.309946,114.670383,23.645749,0,0.23734,-1.521851
1.42,2023-08-03 11:46:00,23.648282,114.671583,34.51,0.05,0,0,20,1,4718.166688,114.670376,23.645723,0,0.23734,-1.521237
1.42,2023-08-03 11:46:01,23.648282,114.671583,34.51,0.05,0,0,20,1,4718.020756,114.67037,23.645698,0,0.23734,-1.520618
1.42,2023-08-03 11:46:02,23.648282,114.671583,34.51,0.05,0,0,20,1,4717.872116,114.670363,23.645672,0,0.23734,-1.519996
1.42,2023-08-03 11:46:03,23.648282,114.671583,34.51,0.05,0,0,20,1,4717.720734,114.670356,23.645647,0,0.23734,-1.51937
1.42,2023-08-03 11:46:04,23.648282,114.671583,34.51,0.05,0,0,20,1,4717.566577,114.670349,23.645621,0,0.23734,-1.51874
1.42,2023-08-03 11:46:05,23.648282,114.671583,34.51,0.05,0,0,20,1,4717.409612,114.670342,23.645595,0,0.23734,-1.518106
1.42,2023-08-03 11:46:06,23.648282,114.671583,34.51,0.05,0,0,20,1,4717.249803,114.670335,23.645569,0,0.23734,-1.517469
1.42,2023-08-03 11:46:07,23.648282,114.671583,34.51,0.05,0,0,20,1,4717.087117,114.670328,23.645542,0,0.23734,-1.516827
1.42,2023-08-03 11:46:08,23.648282,114.671583,34.51,0.05,0,0,20,1,4716.921518,114.670321,23.645516,0,0.23734,-1.516182
1.42,2023-08-03 11:46:09,23.648282,114.671583,34.51,0.05,0,0,20,1,4716.752973,114.670314,23.645489,0,0.23734,-1.515533
1.42,2023-08-03 11:46:10,23.648282,114.671583,34.51,0.05,0,0,20,1,4716.581447,114.670307,23.645462,0,0.23734,-1.51488
1.42,2023-08-03 11:46:11,23.648282,114.671583,34.51,0.05,0,0,20,1,4716.406903,114.6703,23.645435,0,0.23734,-1.514223
1.42,2023-08-03 11:46:12,23.648282,114.671583,34.51,0.05,0,0,20,1,4716.229308,114.670293,23.645408,0,0.23734,-1.513562
1.42,2023-08-03 11:46:13,23.648282,114.671583,34.51,0.05,0,0,20,1,4716.048624,114.670285,23.645381,0,0.23734,-1.512897
1.42,2023-08-03 11:46:14,23.648282,114.671583,34.51,0.05,0,0,20,1,4715.864817,114.670278,23.645353,0,0.23734,-1.512229
1.42,2023-08-03 11:46:15,23.648282,114.671583,34.51,0.05,0,0,20,1,4715.677851,114.670271,23.645326,0,0.23734,-1.511556
1.42,2023-08-03 11:46:16,23.648282,114.671583,34.51,0.05,0,0,20,1,4715.487689,114.670263,23.645298,0,0.23734,-1.51088
1.42,2023-08-03 11:46:17,23.648282,114.671583,34.51,0.05,0,0,20,1,4715.294295,114.670256,23.64527,0,0.23734,-1.5102
1.42,2023-08-03 11:46:18,23.648282,114.671583,34.51,0.05,0,0,20,1,4715.097633,114.670248,23.645242,0,0.23734,-1.509516
1.42,2023-08-03 11:46:19,23.648282,114.671583,34.51,0.05,0,0,20,1,4714.897665,114.670241,23.645214,0,0.23734,-1.508828
1.42,2023-08-03 11:46:20,23.648282,114.671583,34.51,0.05,0,0,20,1,4714.694355,114.670233,23.645185,0,0.23734,-1.508136
1.42,2023-08-03 11:46:21,23.648282,114.671583,34.51,0.05,0,0,20,1,4714.487665,114.670226,23.645157,0,0.23734,-1.507441
1.42,2023-08-03 11:46:22,23.648282,114.671583,34.51,0.05,0,0,20,1,4714.277558,114.670218,23.645128,0,0.23734,-1.506741
1.42,2023-08-03 11:46:23,23.648282,114.671583,34.51,0.05,0,0,20,1,4714.063997,114.67021,23.645099,0,0.23734,-1.506038
1.42,2023-08-03 11:46:24,23.648282,114.671583,34.51,0.05,0,0,20,1,4713.846943,114.670203,23.64507,0,0.23734,-1.505331
1.42,2023-08-03 11:46:25,23.648282,114.671583,34.51,0.05,0,0,20,1,4713.626359,114.670195,23.645041,0,0.23734,-1.504619
1.42,2023-08-03 11:46:26,23.648282,114.671583,34.51,0.05,0,0,20,1,4713.402206,114.670187,23.645012,0,0.23734,-1.503905
1.42,2023-08-03 11:46:27,23.648282,114.671583,34.51,0.05,0,0,20,1,4713.174447,114.670179,23.644982,0,0.23734,-1.503186
1.42,2023-08-03 11:46:28,23.648282,114.671583,34.51,0.05,0,0,20,1,4712.943042,114.670171,23.644953,0,0.23734,-1.502463
1.42,2023-08-03 11:46:29,23.648282,114.671583,34.51,0.05,0,0,20,1,4712.707952,114.670163,23.644923,0,0.23734,-1.501737
1.42,2023-08-03 11:46:30,23.648282,114.671583,34.51,0.05,0,0,20,1,4712.469139,114.670155,23.644893,0,0.23734,-1.501006
1.42,2023-08-03 11:46:31,23.648282,114.671583,34.51,0.05,0,0,20,1,4712.226563,114.670147,23.644863,0,0.23734,-1.500272
1.42,2023-08-03 11:46:32,23.648282,114.671583,34.51,0.05,0,0,20,1,4711.980185,114.670139,23.644832,0,0.23734,-1.499534
1.42,2023-08-03 11:46:33,23.648282,114.671583,34.51,0.05,0,0,20,1,4711.729965,114.670131,23.644802,0,0.23734,-1.498792
1.42,2023-08-03 11:46:34,23.648282,114.671583,34.51,0.05,0,0,20,1,4711.475864,114.670123,23.644771,0,0.23734,-1.498046
1.42,2023-08-03 11:46:35,23.648282,114.671583,34.51,0.05,0,0,20,1,4711.217841,114.670115,23.644741,0,0.23734,-1.497296
1.42,2023-08-03 11:46:36,23.648282,114.671583,34.51,0.05,0,0,20,1,4710.955856,114.670107,23.64471,0,0.23734,-1.496543
1.42,2023-08-03 11:46:37,23.648282,114.671583,34.51,0.05,0,0,20,1,4710.689869,114.670098,23.644679,0,0.23734,-1.495785
1.42,2023-08-03 11:46:38,23.648282,114.671583,34.51,0.05,0,0,20,1,4710.419839,114.67009,23.644648,0,0.23734,-1.495024
1.42,2023-08-03 11:46:39,23.648282,114.671583,34.51,0.05,0,0,20,1,4710.145725,114.670082,23.644616,0,0.23734,-1.494259
1.42,2023-08-03 11:46:40,23.648282,114.671583,34.51,0.05,0,0,20,1,4709.867487,114.670073,23.644585,0,0.23734,-1.49349
1.42,2023-08-03 11:46:41,23.648282,114.671583,34.51,0.05,0,0,20,1,4709.585082,114.670065,23.644553,0,0.23734,-1.492717
1.42,2023-08-03 11:46:42,23.648282,114.671583,34.51,0.05,0,0,20,1,4709.29847,114.670057,23.644521,0,0.23734,-1.49194
1.42,2023-08-03 11:46:43,23.648282,114.671583,34.51,0.05,0,0,20,1,4709.007608,114.670048,23.644489,0,0.23734,-1.49116
1.42,2023-08-03 11:46:44,23.648282,114.671583,34.51,0.05,0,0,20,1,4708.712456,114.670039,23.644457,0,0.23734,-1.490375
1.42,2023-08-03 11:46:45,23.648282,114.671583,34.51,0.05,0,0,20,1,4708.41297,114.670031,23.644425,0,0.23734,-1.489587
1.42,2023-08-03 11:46:46,23.648282,114.671583,34.51,0.05,0,0,20,1,4708.109109,114.670022,23.644392,0,0.23734,-1.488795
1.42,2023-08-03 11:46:47,23.648282,114.671583,34.51,0.05,0,0,20,1,4707.80083,114.670014,23.644359,0,0.23734,-1.487999
1.42,2023-08-03 11:46:48,23.648282,114.671583,34.51,0.05,0,0,20,1,4707.488091,114.670005,23.644327,0,0.23734,-1.487199
1.42,2023-08-03 11:46:49,23.648282,114.671583,34.51,0.05,0,0,20,1,4707.170848,114.669996,23.644294,0,0.23734,-1.486395
1.42,2023-08-03 11:46:50,23.648282,114.671583,34.51,0.05,0,0,20,1,4706.849059,114.669987,23.644261,0,0.23734,-1.485587
1.42,2023-08-03 11:46:51,23.648282,114.671583,34.51,0.05,0,0,20,1,4706.52268,114.669978,23.644227,0,0.23734,-1.484776
1.42,2023-08-03 11:46:52,23.648282,114.671583,34.51,0.05,0,0,20,1,4706.191669,114.669969,23.644194,0,0.23734,-1.48396
1.42,2023-08-03 11:46:53,23.648282,114.671583,34.51,0.05,0,0,20,1,4705.85598,114.669961,23.64416,0,0.23734,-1.483141
1.42,2023-08-03 11:46:54,23.648282,114.671583,34.51,0.05,0,0,20,1,4705.515571,114.669952,23.644127,0,0.23734,-1.482318
1.42,2023-08-03 11:46:55,23.648282,114.671583,34.51,0.05,0,0,20,1,4705.170397,114.669943,23.644093,0,0.23734,-1.481491
1.42,2023-08-03 11:46:56,23.648282,114.671583,34.51,0.05,0,0,20,1,4704.820414,114.669934,23.644059,0,0.23734,-1.48066
1.42,2023-08-03 11:46:57,23.648282,114.671583,34.51,0.05,0,0,20,1,4704.465578,114.669924,23.644025,0,0.23734,-1.479825
1.42,2023-08-03 11:46:58,23.648282,114.671583,34.51,0.05,0,0,20,1,4704.105844,114.669915,23.64399,0,0.23734,-1.478987
1.42,2023-08-03 11:46:59,23.648282,114.671583,34.51,0.05,0,0,20,1,4703.741167,114.669906,23.643956,0,0.23734,-1.478144
1.42,2023-08-03 11:47:00,23.648282,114.671583,34.51,0.05,0,0,20,1,4703.371502,114.669897,23.643921,0,0.23734,-1.477298
1.42,2023-08-03 11:47:01,23.648282,114.671583,34.51,0.05,0,0,20,1,4702.996804,114.669888,23.643886,0,0.23734,-1.476448
1.42,2023-08-03 11:47:02,23.648282,114.671583,34.51,0.05,0,0,20,1,4702.617027,114.669878,23.643851,0,0.23734,-1.475594
1.42,2023-08-03 11:47:03,23.648282,114.671583,34.51,0.05,0,0,20,1,4702.232126,114.669869,23.643816,0,0.23734,-1.474736
1.42,2023-08-03 11:47:04,23.648282,114.671583,34.51,0.05,0,0,20,1,4701.842055,114.66986,23.643781,0,0.23734,-1.473874
1.42,2023-08-03 11:47:05,23.648282,114.671583,34.51,0.05,0,0,20,1,4701.446768,114.66985,23.643746,0,0.23734,-1.473009
1.42,2023-08-03 11:47:06,23.648282,114.671583,34.51,0.05,0,0,20,1,4701.046218,114.669841,23.64371,0,0.23734,-1.472139
1.42,2023-08-03 11:47:07,23.648282,114.671583,34.51,0.05,0,0,20,1,4700.64036,114.669831,23.643674,0,0.23734,-1.471266
1.42,2023-08-03 11:47:08,23.648282,114.671583,34.51,0.05,0,0,20,1,4700.229146,114.669822,23.643638,0,0.23734,-1.470389
1.42,2023-08-03 11:47:09,23.648282,114.671583,34.51,0.05,0,0,20,1,4699.81253,114.669812,23.643602,0,0.23734,-1.469508
1.42,2023-08-03 11:47:10,23.648282,114.671583,34.51,0.05,0,0,20,1,4699.390465,114.669802,23.643566,0,0.23734,-1.468623
1.42,2023-08-03 11:47:11,23.648282,114.671583,34.51,0.05,0,0,20,1,4698.962903,114.669793,23.64353,0,0.23734,-1.467734
1.42,2023-08-03 11:47:12,23.648282,114.671583,34.51,0.05,0,0,20,1,4698.529797,114.669783,23.643493,0,0.23734,-1.466841
1.42,2023-08-03 11:47:13,23.648282,114.671583,34.51,0.05,0,0,20,1,4698.091099,114.669773,23.643457,0,0.23734,-1.465945
1.42,2023-08-03 11:47:14,23.648282,114.671583,34.51,0.05,0,0,20,1,4697.646763,114.669763,23.64342,0,0.23734,-1.465044
1.42,2023-08-03 11:47:15,23.648282,114.671583,34.51,0.05,0,0,20,1,4697.196739,114.669754,23.643383,0,0.23734,-1.46414
1.42,2023-08-03 11:47:16,23.648282,114.671583,34.51,0.05,0,0,20,1,4696.740979,114.669744,23.643346,0,0.23734,-1.463232
1.42,2023-08-03 11:47:17,23.648282,114.671583,34.51,0.05,0,0,20,1,4696.279436,114.669734,23.643308,0,0.23734,-1.46232
1.42,2023-08-03 11:47:18,23.648282,114.671583,34.51,0.05,0,0,20,1,4695.81206,114.669724,23.643271,0,0.23734,-1.461404
1.42,2023-08-03 11:47:19,23.648282,114.671583,34.51,0.05,0,0,20,1,4695.338802,114.669714,23.643233,0,0.23734,-1.460484
1.42,2023-08-03 11:47:20,23.648282,114.671583,34.51,0.05,0,0,20,1,4694.859615,114.669704,23.643196,0,0.23734,-1.459561
1.42,2023-08-03 11:47:21,23.648282,114.671583,34.51,0.05,0,0,20,1,4694.374447,114.669694,23.643158,0,0.23734,-1.458633
1.42,2023-08-03 11:47:22,23.648282,114.671583,34.51,0.05,0,0,20,1,4693.883252,114.669684,23.64312,0,0.23734,-1.457702
1.42,2023-08-03 11:47:23,23.648282,114.671583,34.51,0.05,0,0,20,1,4693.385977,114.669673,23.643081,0,0.23734,-1.456767
1.42,2023-08-03 11:47:24,23.648282,114.671583,34.51,0.05,0,0,20,1,4692.882575,114.669663,23.643043,0,0.23734,-1.455828
1.42,2023-08-03 11:47:25,23.648282,114.671583,34.51,0.05,0,0,20,1,4692.372995,114.669653,23.643004,0,0.23734,-1.454885
1.42,2023-08-03 11:47:26,23.648282,114.671583,34.51,0.05,0,0,20,1,4691.857186,114.669643,23.642966,0,0.23734,-1.453938
1.42,2023-08-03 11:47:27,23.648282,114.671583,34.51,0.05,0,0,20,1,4691.335099,114.669632,23.642927,0,0.23734,-1.452988
1.42,2023-08-03 11:47:28,23.648282,114.671583,34.51,0.05,0,0,20,1,4690.806683,114.669622,23.642888,0,0.23734,-1.452033
1.42,2023-08-03 11:47:29,23.648282,114.671583,34.51,0.05,0,0,20,1,4690.271887,114.669612,23.642849,0,0.23734,-1.451075
1.42,2023-08-03 11:47:30,23.648282,114.671583,34.51,0.05,0,0,20,1,4689.730661,114.669601,23.64281,0,0.23734,-1.450113
1.42,2023-08-03 11:47:31,23.648282,114.671583,34.51,0.05,0,0,20,1,4689.182952,114.669591,23.64277,0,0.23734,-1.449147
1.42,2023-08-03 11:47:32,23.648282,114.671583,34.51,0.05,0,0,20,1,4688.628711,114.66958,23.642731,0,0.23734,-1.448177
1.42,2023-08-03 11:47:33,23.648282,114.671583,34.51,0.05,0,0,20,1,4688.067885,114.669569,23.642691,0,0.23734,-1.447203
