distance,time,lat,lon,ele,speed,hr,cad,temperature,strava_index,camera.ele,camera.lon,camera.lat,camera.roll,camera.heading,camera.pitch
2.22,2023-08-06 00:13:21,23.520094,114.69175,147.8,1.26,0,0,20,2,5624.553477,114.692142,23.520119,0,-0.205225,-1.570796
2.22,2023-08-06 00:13:21,23.520094,114.69175,147.8,1.26,0,0,20,2,5624.553477,114.692142,23.520119,0,-0.205225,-1.570796
2.22,2023-08-06 00:13:21,23.520094,114.69175,147.8,1.26,0,0,20,2,5624.553477,114.692142,23.520119,0,-0.205225,-1.570796
2.22,2023-08-06 00:13:21,23.520094,114.69175,147.8,1.26,0,0,20,2,5624.553477,114.692142,23.520119,0,-0.205225,-1.570796
2.22,2023-08-06 00:13:21,23.520094,114.69175,147.8,1.26,0,0,20,2,5624.553477,114.692142,23.520119,0,-0.205225,-1.570796
2.22,2023-08-06 00:13:21,23.520094,114.69175,147.8,1.26,0,0,20,2,5624.553477,114.692142,23.520119,0,-0.205225,-1.570796
2.22,2023-08-06 00:13:21,23.520094,114.69175,147.8,1.26,0,0,20,2,5624.553477,114.692142,23.520119,0,-0.205225,-1.570796
2.22,2023-08-06 00:13:21,23.520094,114.69175,147.8,1.26,0,0,20,2,5624.553477,114.692142,23.520119,0,-0.205225,-1.570796
2.22,2023-08-06 00:13:21,23.520094,114.69175,147.8,1.26,0,0,20,2,5624.553477,114.692142,23.520119,0,-0.205225,-1.570796
2.22,2023-08-06 00:13:21,23.520094,114.69175,147.8,1.26,0,0,20,2,5624.553477,114.692142,23.520119,0,-0.205225,-1.570796
2.22,2023-08-06 00:13:21,23.520094,114.69175,147.8,1.26,0,0,20,2,5624.553477,114.692142,23.520119,0,-0.205225,-1.570796
2.22,2023-08-06 00:13:21,23.520094,114.69175,147.8,1.26,0,0,20,2,5624.553477,114.692142,23.520119,0,-0.205225,-1.570796
2.22,2023-08-06 00:13:21,23.520094,114.69175,147.8,1.26,0,0,20,2,5624.553477,114.692142,23.520119,0,-0.205225,-1.570796
2.22,2023-08-06 00:13:21,23.520094,114.69175,147.8,1.26,0,0,20,2,5624.553477,114.692142,23.520119,0,-0.205225,-1.570796
2.22,2023-08-06 00:13:21,23.520094,114.69175,147.8,1.26,0,0,20,2,5624.553477,114.692142,23.520119,0,-0.205225,-1.570796
2.22,2023-08-06 00:13:21,23.520094,114.69175,147.8,1.26,0,0,20,2,5624.553477,114.692142,23.520119,0,-0.205225,-1.570796
2.22,2023-08-06 00:13:21,23.520094,114.69175,147.8,1.26,0,0,20,2,5624.553477,114.692142,23.520119,0,-0.205225,-1.570796
2.22,2023-08-06 00:13:21,23.520094,114.69175,147.8,1.26,0,0,20,2,5624.553477,114.692142,23.520119,0,-0.205225,-1.570796
2.22,2023-08-06 00:13:21,23.520094,114.69175,147.8,1.26,0,0,20,2,5624.553477,114.692142,23.520119,0,-0.205225,-1.570796
2.22,2023-08-06 00:13:21,23.520094,114.69175,147.8,1.26,0,0,20,2,5624.553477,114.692142,23.520119,0,-0.205225,-1.570796
2.22,2023-08-06 00:13:21,23.520094,114.69175,147.8,1.26,0,0,20,2,5624.553477,114.692142,23.520119,0,-0.205225,-1.570796
2.22,2023-08-06 00:13:21,23.520094,114.69175,147.8,1.26,0,0,20,2,5624.553477,114.692142,23.520119,0,-0.205225,-1.570796
2.22,2023-08-06 00:13:21,23.520094,114.69175,147.8,1.26,0,0,20,2,5624.553477,114.692142,23.520119,0,-0.205225,-1.570796
2.22,2023-08-06 00:13:21,23.520094,114.69175,147.8,1.26,0,0,20,2,5624.553477,114.692142,23.520119,0,-0.205225,-1.570796
2.22,2023-08-06 00:13:21,23.520094,114.69175,147.8,1.26,0,0,20,2,5624.553477,114.692142,23.520119,0,-0.205225,-1.570796
2.22,2023-08-06 00:13:21,23.520094,114.69175,147.8,1.26,0,0,20,2,5624.553477,114.692142,23.520119,0,-0.205225,-1.570796
2.22,2023-08-06 00:13:21,23.520094,114.69175,147.8,1.26,0,0,20,2,5624.553477,114.692142,23.520119,0,-0.205225,-1.570796
2.22,2023-08-06 00:13:21,23.520094,114.69175,147.8,1.26,0,0,20,2,5624.553477,114.692142,23.520119,0,-0.205225,-1.570796
2.22,2023-08-06 00:13:21,23.520094,114.69175,147.8,1.26,0,0,20,2,5624.553477,114.692142,23.520119,0,-0.205225,-1.570796
2.22,2023-08-06 00:13:21,23.520094,114.69175,147.8,1.26,0,0,20,2,5624.553477,114.692142,23.520119,0,-0.205225,-1.570796
2.22,2023-08-06 00:13:21,23.520094,114.69175,147.8,1.26,0,0,20,2,5624.553477,114.692142,23.520119,0,-0.205225,-1.570796
2.22,2023-08-06 00:13:21,23.520094,114.69175,147.8,1.26,0,0,20,2,5624.553477,114.692142,23.520119,0,-0.205225,-1.570796
2.22,2023-08-06 00:13:21,23.520094,114.69175,147.8,1.26,0,0,20,2,5624.553477,114.692142,23.520119,0,-0.205225,-1.570796
2.22,2023-08-06 00:13:21,23.520094,114.69175,147.8,1.26,0,0,20,2,5624.553477,114.692142,23.520119,0,-0.205225,-1.570796
2.22,2023-08-06 00:13:21,23.520094,114.69175,147.8,1.26,0,0,20,2,5624.553477,114.692142,23.520119,0,-0.205225,-1.570796
2.22,2023-08-06 00:13:21,23.520094,114.69175,147.8,1.26,0,0,20,2,5624.553477,114.692142,23.520119,0,-0.205225,-1.570796
2.22,2023-08-06 00:13:21,23.520094,114.69175,147.8,1.26,0,0,20,2,5624.553477,114.692142,23.520119,0,-0.205225,-1.570796
2.22,2023-08-06 00:13:21,23.520094,114.69175,147.8,1.26,0,0,20,2,5624.553477,114.692142,23.520119,0,-0.205225,-1.570796
2.22,2023-08-06 00:13:21,23.520094,114.69175,147.8,1.26,0,0,20,2,5624.553477,114.692142,23.520119,0,-0.205225,-1.570796
2.22,2023-08-06 00:13:21,23.520094,114.69175,147.8,1.26,0,0,20,2,5624.553477,114.692142,23.520119,0,-0.205225,-1.570796
2.22,2023-08-06 00:13:21,23.520094,114.69175,147.8,1.26,0,0,20,2,5624.553477,114.692142,23.520119,0,-0.205225,-1.570796
2.22,2023-08-06 00:13:21,23.520094,114.69175,147.8,1.26,0,0,20,2,5624.553477,114.692142,23.520119,0,-0.205225,-1.570796
2.22,2023-08-06 00:13:21,23.520094,114.69175,147.8,1.26,0,0,20,2,5624.553477,114.692142,23.520119,0,-0.205225,-1.570796
2.22,2023-08-06 00:13:21,23.520094,114.69175,147.8,1.26,0,0,20,2,5624.553477,114.692142,23.520119,0,-0.205225,-1.570796
2.22,2023-08-06 00:13:21,23.520094,114.69175,147.8,1.26,0,0,20,2,5624.553477,114.692142,23.520119,0,-0.205225,-1.570796
2.22,2023-08-06 00:13:21,23.520094,114.69175,147.8,1.26,0,0,20,2,5624.553477,114.692142,23.520119,0,-0.205225,-1.570796
2.22,2023-08-06 00:13:21,23.520094,114.69175,147.8,1.26,0,0,20,2,5624.553477,114.692142,23.520119,0,-0.205225,-1.570796
2.22,2023-08-06 00:13:21,23.520094,114.69175,147.8,1.26,0,0,20,2,5624.553477,114.692142,23.520119,0,-0.205225,-1.570796
2.22,2023-08-06 00:13:21,23.520094,114.69175,147.8,1.26,0,0,20,2,5624.553477,114.692142,23.520119,0,-0.205225,-1.570796
2.22,2023-08-06 00:13:21,23.520094,114.69175,147.8,1.26,0,0,20,2,5624.553477,114.692142,23.520119,0,-0.205225,-1.570796
2.22,2023-08-06 00:13:21,23.520094,114.69175,147.8,1.26,0,0,20,2,5624.553477,114.692142,23.520119,0,-0.205225,-1.570796
2.22,2023-08-06 00:13:21,23.520094,114.69175,147.8,1.26,0,0,20,2,5624.553477,114.692142,23.520119,0,-0.205225,-1.570796
2.22,2023-08-06 00:13:21,23.520094,114.69175,147.8,1.26,0,0,20,2,5624.553477,114.692142,23.520119,0,-0.205225,-1.570796
2.22,2023-08-06 00:13:21,23.520094,114.69175,147.8,1.26,0,0,20,2,5624.553477,114.692142,23.520119,0,-0.205225,-1.570796
2.22,2023-08-06 00:13:21,23.520094,114.69175,147.8,1.26,0,0,20,2,5624.553477,114.692142,23.520119,0,-0.205225,-1.570796
2.22,2023-08-06 00:13:21,23.520094,114.69175,147.8,1.26,0,0,20,2,5624.553477,114.692142,23.520119,0,-0.205225,-1.570796
2.22,2023-08-06 00:13:21,23.520094,114.69175,147.8,1.26,0,0,20,2,5624.553477,114.692142,23.520119,0,-0.205225,-1.570796
2.22,2023-08-06 00:13:21,23.520094,114.69175,147.8,1.26,0,0,20,2,5624.553477,114.692142,23.520119,0,-0.205225,-1.570796
2.22,2023-08-06 00:13:21,23.520094,114.69175,147.8,1.26,0,0,20,2,5624.553477,114.692142,23.520119,0,-0.205225,-1.570796
2.22,2023-08-06 00:13:21,23.520094,114.69175,147.8,1.26,0,0,20,2,5624.553477,114.692142,23.520119,0,-0.205225,-1.570796
2.22,2023-08-06 00:13:21,23.520094,114.69175,147.8,1.26,0,0,20,2,5624.553477,114.692142,23.520119,0,-0.205225,-1.570796
2.22,2023-08-06 00:13:21,23.520094,114.69175,147.8,1.26,0,0,20,2,5624.553477,114.692142,23.520119,0,-0.205225,-1.570796
2.22,2023-08-06 00:13:21,23.520094,114.69175,147.8,1.26,0,0,20,2,5624.553477,114.692142,23.520119,0,-0.205225,-1.570796
2.22,2023-08-06 00:13:21,23.520094,114.69175,147.8,1.26,0,0,20,2,5624.553477,114.692142,23.520119,0,-0.205225,-1.570796
2.22,2023-08-06 00:13:21,23.520094,114.69175,147.8,1.26,0,0,20,2,5624.553477,114.692142,23.520119,0,-0.205225,-1.570796
2.22,2023-08-06 00:13:21,23.520094,114.69175,147.8,1.26,0,0,20,2,5624.553477,114.692142,23.520119,0,-0.205225,-1.570796
2.22,2023-08-06 00:13:21,23.520094,114.69175,147.8,1.26,0,0,20,2,5624.553477,114.692142,23.520119,0,-0.205225,-1.570796
2.22,2023-08-06 00:13:21,23.520094,114.69175,147.8,1.26,0,0,20,2,5624.553477,114.692142,23.520119,0,-0.205225,-1.570796
2.22,2023-08-06 00:13:21,23.520094,114.69175,147.8,1.26,0,0,20,2,5624.553477,114.692142,23.520119,0,-0.205225,-1.570796
2.22,2023-08-06 00:13:21,23.520094,114.69175,147.8,1.26,0,0,20,2,5624.553477,114.692142,23.520119,0,-0.205225,-1.570796
2.22,2023-08-06 00:13:21,23.520094,114.69175,147.8,1.26,0,0,20,2,5624.553477,114.692142,23.520119,0,-0.205225,-1.570796
2.22,2023-08-06 00:13:21,23.520094,114.69175,147.8,1.26,0,0,20,2,5624.553477,114.692142,23.520119,0,-0.205225,-1.570796
2.22,2023-08-06 00:13:21,23.520094,114.69175,147.8,1.26,0,0,20,2,5624.553477,114.692142,23.520119,0,-0.205225,-1.570796
2.22,2023-08-06 00:13:21,23.520094,114.69175,147.8,1.26,0,0,20,2,5624.553477,114.692142,23.520119,0,-0.205225,-1.570796
2.22,2023-08-06 00:13:21,23.520094,114.69175,147.8,1.26,0,0,20,2,5624.553477,114.692142,23.520119,0,-0.205225,-1.570796
2.22,2023-08-06 00:13:21,23.520094,114.69175,147.8,1.26,0,0,20,2,5624.553477,114.692142,23.520119,0,-0.205225,-1.570796
2.22,2023-08-06 00:13:21,23.520094,114.69175,147.8,1.26,0,0,20,2,5624.553477,114.692142,23.520119,0,-0.205225,-1.570796
2.22,2023-08-06 00:13:21,23.520094,114.69175,147.8,1.26,0,0,20,2,5624.553477,114.692142,23.520119,0,-0.205225,-1.570796
2.22,2023-08-06 00:13:21,23.520094,114.69175,147.8,1.26,0,0,20,2,5624.553477,114.692142,23.520119,0,-0.205225,-1.570796
2.22,2023-08-06 00:13:21,23.520094,114.69175,147.8,1.26,0,0,20,2,5624.553477,114.692142,23.520119,0,-0.205225,-1.570796
2.22,2023-08-06 00:13:21,23.520094,114.69175,147.8,1.26,0,0,20,2,5624.553477,114.692142,23.520119,0,-0.205225,-1.570796
2.22,2023-08-06 00:13:21,23.520094,114.69175,147.8,1.26,0,0,20,2,5624.553477,114.692142,23.520119,0,-0.205225,-1.570796
2.22,2023-08-06 00:13:21,23.520094,114.69175,147.8,1.26,0,0,20,2,5624.553477,114.692142,23.520119,0,-0.205225,-1.570796
2.22,2023-08-06 00:13:21,23.520094,114.69175,147.8,1.26,0,0,20,2,5624.553477,114.692142,23.520119,0,-0.205225,-1.570796
2.22,2023-08-06 00:13:21,23.520094,114.69175,147.8,1.26,0,0,20,2,5624.553477,114.692142,23.520119,0,-0.205225,-1.570796
2.22,2023-08-06 00:13:21,23.520094,114.69175,147.8,1.26,0,0,20,2,5624.553477,114.692142,23.520119,0,-0.205225,-1.570796
2.22,2023-08-06 00:13:21,23.520094,114.69175,147.8,1.26,0,0,20,2,5624.553477,114.692142,23.520119,0,-0.205225,-1.570796
2.22,2023-08-06 00:13:21,23.520094,114.69175,147.8,1.26,0,0,20,2,5624.553477,114.692142,23.520119,0,-0.205225,-1.570796
2.22,2023-08-06 00:13:21,23.520094,114.69175,147.8,1.26,0,0,20,2,5624.553477,114.692142,23.520119,0,-0.205225,-1.570796
2.22,2023-08-06 00:13:21,23.520094,114.69175,147.8,1.26,0,0,20,2,5624.553477,114.692142,23.520119,0,-0.205225,-1.570796
2.22,2023-08-06 00:13:21,23.520094,114.69175,147.8,1.26,0,0,20,2,5624.553477,114.692142,23.520119,0,-0.205225,-1.570796
2.22,2023-08-06 00:13:21,23.520094,114.69175,147.8,1.26,0,0,20,2,5624.553477,114.692142,23.520119,0,-0.205225,-1.570796
2.22,2023-08-06 00:13:21,23.520094,114.69175,147.8,1.26,0,0,20,2,5624.553477,114.692142,23.520119,0,-0.205225,-1.570796
2.22,2023-08-06 00:13:21,23.520094,114.69175,147.8,1.26,0,0,20,2,5624.553477,114.692142,23.520119,0,-0.205225,-1.570796
2.22,2023-08-06 00:13:21,23.520094,114.69175,147.8,1.26,0,0,20,2,5624.553477,114.692142,23.520119,0,-0.205225,-1.570796
2.22,2023-08-06 00:13:21,23.520094,114.69175,147.8,1.26,0,0,20,2,5624.553477,114.692142,23.520119,0,-0.205225,-1.570796
2.22,2023-08-06 00:13:21,23.520094,114.69175,147.8,1.26,0,0,20,2,5624.553477,114.692142,23.520119,0,-0.205225,-1.570796
2.22,2023-08-06 00:13:21,23.520094,114.69175,147.8,1.26,0,0,20,2,5624.553477,114.692142,23.520119,0,-0.205225,-1.570796
2.22,2023-08-06 00:13:21,23.520094,114.69175,147.8,1.26,0,0,20,2,5624.553477,114.692142,23.520119,0,-0.205225,-1.570796
2.22,2023-08-06 00:13:21,23.520094,114.69175,147.8,1.26,0,0,20,2,5624.553477,114.692142,23.520119,0,-0.205225,-1.570796
2.22,2023-08-06 00:13:21,23.520094,114.69175,147.8,1.26,0,0,20,2,5624.553477,114.692142,23.520119,0,-0.205225,-1.570796
2.22,2023-08-06 00:13:21,23.520094,114.69175,147.8,1.26,0,0,20,2,5624.553477,114.692142,23.520119,0,-0.205225,-1.570796
2.22,2023-08-06 00:13:21,23.520094,114.69175,147.8,1.26,0,0,20,2,5624.553477,114.692142,23.520119,0,-0.205225,-1.570796
2.22,2023-08-06 00:13:21,23.520094,114.69175,147.8,1.26,0,0,20,2,5624.553477,114.692142,23.520119,0,-0.205225,-1.570796
2.22,2023-08-06 00:13:21,23.520094,114.69175,147.8,1.26,0,0,20,2,5624.553477,114.692142,23.520119,0,-0.205225,-1.570796
2.22,2023-08-06 00:13:21,23.520094,114.69175,147.8,1.26,0,0,20,2,5624.553477,114.692142,23.520119,0,-0.205225,-1.570796
2.22,2023-08-06 00:13:21,23.520094,114.69175,147.8,1.26,0,0,20,2,5624.553477,114.692142,23.520119,0,-0.205225,-1.570796
2.22,2023-08-06 00:13:21,23.520094,114.69175,147.8,1.26,0,0,20,2,5624.553477,114.692142,23.520119,0,-0.205225,-1.570796
2.22,2023-08-06 00:13:21,23.520094,114.69175,147.8,1.26,0,0,20,2,5624.553477,114.692142,23.520119,0,-0.205225,-1.570796
2.22,2023-08-06 00:13:21,23.520094,114.69175,147.8,1.26,0,0,20,2,5624.553477,114.692142,23.520119,0,-0.205225,-1.570796
2.22,2023-08-06 00:13:21,23.520094,114.69175,147.8,1.26,0,0,20,2,5624.553477,114.692142,23.520119,0,-0.205225,-1.570796
2.22,2023-08-06 00:13:21,23.520094,114.69175,147.8,1.26,0,0,20,2,5624.553477,114.692142,23.520119,0,-0.205225,-1.570796
2.22,2023-08-06 00:13:21,23.520094,114.69175,147.8,1.26,0,0,20,2,5624.553477,114.692142,23.520119,0,-0.205225,-1.570796
2.22,2023-08-06 00:13:21,23.520094,114.69175,147.8,1.26,0,0,20,2,5624.553477,114.692142,23.520119,0,-0.205225,-1.570796
2.22,2023-08-06 00:13:21,23.520094,114.69175,147.8,1.26,0,0,20,2,5624.553477,114.692142,23.520119,0,-0.205225,-1.570796
2.22,2023-08-06 00:13:21,23.520094,114.69175,147.8,1.26,0,0,20,2,5624.553477,114.692142,23.520119,0,-0.205225,-1.570796
2.22,2023-08-06 00:13:21,23.520094,114.69175,147.8,1.26,0,0,20,2,5624.553477,114.692142,23.520119,0,-0.205225,-1.570796
2.22,2023-08-06 00:13:21,23.520094,114.69175,147.8,1.26,0,0,20,2,5624.553477,114.692142,23.520119,0,-0.205225,-1.570796
2.22,2023-08-06 00:13:21,23.520094,114.69175,147.8,1.26,0,0,20,2,5624.553477,114.692142,23.520119,0,-0.205225,-1.570796
2.22,2023-08-06 00:13:21,23.520094,114.69175,147.8,1.26,0,0,20,2,5624.553477,114.692142,23.520119,0,-0.205225,-1.570796
2.22,2023-08-06 00:13:21,23.520094,114.69175,147.8,1.26,0,0,20,2,5624.553477,114.692142,23.520119,0,-0.205225,-1.570796
2.22,2023-08-06 00:13:21,23.520094,114.69175,147.8,1.26,0,0,20,2,5624.553477,114.692142,23.520119,0,-0.205225,-1.570796
2.22,2023-08-06 00:13:21,23.520094,114.69175,147.8,1.26,0,0,20,2,5624.553477,114.692142,23.520119,0,-0.205225,-1.570796
2.22,2023-08-06 00:13:21,23.520094,114.69175,147.8,1.26,0,0,20,2,5624.553477,114.692142,23.520119,0,-0.205225,-1.570796
2.22,2023-08-06 00:13:21,23.520094,114.69175,147.8,1.26,0,0,20,2,5624.553477,114.692142,23.520119,0,-0.205225,-1.570796
2.22,2023-08-06 00:13:21,23.520094,114.69175,147.8,1.26,0,0,20,2,5624.553477,114.692142,23.520119,0,-0.205225,-1.570796
2.22,2023-08-06 00:13:21,23.520094,114.69175,147.8,1.26,0,0,20,2,5624.553477,114.692142,23.520119,0,-0.205225,-1.570796
2.22,2023-08-06 00:13:21,23.520094,114.69175,147.8,1.26,0,0,20,2,5624.553477,114.692142,23.520119,0,-0.205225,-1.570796
2.22,2023-08-06 00:13:21,23.520094,114.69175,147.8,1.26,0,0,20,2,5624.553477,114.692142,23.520119,0,-0.205225,-1.570796
2.22,2023-08-06 00:13:21,23.520094,114.69175,147.8,1.26,0,0,20,2,5624.553477,114.692142,23.520119,0,-0.205225,-1.570796
2.22,2023-08-06 00:13:21,23.520094,114.69175,147.8,1.26,0,0,20,2,5624.553477,114.692142,23.520119,0,-0.205225,-1.570796
2.22,2023-08-06 00:13:21,23.520094,114.69175,147.8,1.26,0,0,20,2,5624.553477,114.692142,23.520119,0,-0.205225,-1.570796
2.22,2023-08-06 00:13:21,23.520094,114.69175,147.8,1.26,0,0,20,2,5624.553477,114.692142,23.520119,0,-0.205225,-1.570796
2.22,2023-08-06 00:13:21,23.520094,114.69175,147.8,1.26,0,0,20,2,5624.553477,114.692142,23.520119,0,-0.205225,-1.570796
2.22,2023-08-06 00:13:21,23.520094,114.69175,147.8,1.26,0,0,20,2,5624.553477,114.692142,23.520119,0,-0.205225,-1.570796
2.22,2023-08-06 00:13:21,23.520094,114.69175,147.8,1.26,0,0,20,2,5624.553477,114.692142,23.520119,0,-0.205225,-1.570796
2.22,2023-08-06 00:13:21,23.520094,114.69175,147.8,1.26,0,0,20,2,5624.553477,114.692142,23.520119,0,-0.205225,-1.570796
2.22,2023-08-06 00:13:21,23.520094,114.69175,147.8,1.26,0,0,20,2,5624.553477,114.692142,23.520119,0,-0.205225,-1.570796
2.22,2023-08-06 00:13:21,23.520094,114.69175,147.8,1.26,0,0,20,2,5624.553477,114.692142,23.520119,0,-0.205225,-1.570796
2.22,2023-08-06 00:13:21,23.520094,114.69175,147.8,1.26,0,0,20,2,5624.553477,114.692142,23.520119,0,-0.205225,-1.570796
2.22,2023-08-06 00:13:21,23.520094,114.69175,147.8,1.26,0,0,20,2,5624.553477,114.692142,23.520119,0,-0.205225,-1.570796
2.22,2023-08-06 00:13:21,23.520094,114.69175,147.8,1.26,0,0,20,2,5624.553477,114.692142,23.520119,0,-0.205225,-1.570796
2.22,2023-08-06 00:13:21,23.520094,114.69175,147.8,1.26,0,0,20,2,5624.553477,114.692142,23.520119,0,-0.205225,-1.570796
2.22,2023-08-06 00:13:21,23.520094,114.69175,147.8,1.26,0,0,20,2,5624.553477,114.692142,23.520119,0,-0.205225,-1.570796
2.22,2023-08-06 00:13:21,23.520094,114.69175,147.8,1.26,0,0,20,2,5624.553477,114.692142,23.520119,0,-0.205225,-1.570796
2.22,2023-08-06 00:13:21,23.520094,114.69175,147.8,1.26,0,0,20,2,5624.553477,114.692142,23.520119,0,-0.205225,-1.570796
2.22,2023-08-06 00:13:21,23.520094,114.69175,147.8,1.26,0,0,20,2,5624.553477,114.692142,23.520119,0,-0.205225,-1.570796
2.22,2023-08-06 00:13:21,23.520094,114.69175,147.8,1.26,0,0,20,2,5624.553477,114.692142,23.520119,0,-0.205225,-1.570796
2.22,2023-08-06 00:13:21,23.520094,114.69175,147.8,1.26,0,0,20,2,5624.553477,114.692142,23.520119,0,-0.205225,-1.570796
2.22,2023-08-06 00:13:21,23.520094,114.69175,147.8,1.26,0,0,20,2,5624.553477,114.692142,23.520119,0,-0.205225,-1.570796
2.22,2023-08-06 00:13:21,23.520094,114.69175,147.8,1.26,0,0,20,2,5624.553477,114.692142,23.520119,0,-0.205225,-1.570796
2.22,2023-08-06 00:13:21,23.520094,114.69175,147.8,1.26,0,0,20,2,5624.553477,114.692142,23.520119,0,-0.205225,-1.570796
2.22,2023-08-06 00:13:21,23.520094,114.69175,147.8,1.26,0,0,20,2,5624.553477,114.692142,23.520119,0,-0.205225,-1.570796
2.22,2023-08-06 00:13:21,23.520094,114.69175,147.8,1.26,0,0,20,2,5624.553477,114.692142,23.520119,0,-0.205225,-1.570796
2.22,2023-08-06 00:13:21,23.520094,114.69175,147.8,1.26,0,0,20,2,5624.553477,114.692142,23.520119,0,-0.205225,-1.570796
2.22,2023-08-06 00:13:21,23.520094,114.69175,147.8,1.26,0,0,20,2,5624.553477,114.692142,23.520119,0,-0.205225,-1.570796
2.22,2023-08-06 00:13:21,23.520094,114.69175,147.8,1.26,0,0,20,2,5624.553477,114.692142,23.520119,0,-0.205225,-1.570796
2.22,2023-08-06 00:13:21,23.520094,114.69175,147.8,1.26,0,0,20,2,5624.553477,114.692142,23.520119,0,-0.205225,-1.570796
2.22,2023-08-06 00:13:21,23.520094,114.69175,147.8,1.26,0,0,20,2,5624.553477,114.692142,23.520119,0,-0.205225,-1.570796
2.22,2023-08-06 00:13:21,23.520094,114.69175,147.8,1.26,0,0,20,2,5624.553477,114.692142,23.520119,0,-0.205225,-1.570796
2.22,2023-08-06 00:13:21,23.520094,114.69175,147.8,1.26,0,0,20,2,5624.553477,114.692142,23.520119,0,-0.205225,-1.570796
2.22,2023-08-06 00:13:21,23.520094,114.69175,147.8,1.26,0,0,20,2,5624.553477,114.692142,23.520119,0,-0.205225,-1.570796
2.22,2023-08-06 00:13:21,23.520094,114.69175,147.8,1.26,0,0,20,2,5624.553477,114.692142,23.520119,0,-0.205225,-1.570796
2.22,2023-08-06 00:13:21,23.520094,114.69175,147.8,1.26,0,0,20,2,5624.553477,114.692142,23.520119,0,-0.205225,-1.570796
2.22,2023-08-06 00:13:21,23.520094,114.69175,147.8,1.26,0,0,20,2,5624.553477,114.692142,23.520119,0,-0.205225,-1.570796
2.22,2023-08-06 00:13:21,23.520094,114.69175,147.8,1.26,0,0,20,2,5624.553477,114.692142,23.520119,0,-0.205225,-1.570796
2.22,2023-08-06 00:13:21,23.520094,114.69175,147.8,1.26,0,0,20,2,5624.553477,114.692142,23.520119,0,-0.205225,-1.570796
2.22,2023-08-06 00:13:21,23.520094,114.69175,147.8,1.26,0,0,20,2,5624.553477,114.692142,23.520119,0,-0.205225,-1.570796
2.22,2023-08-06 00:13:21,23.520094,114.69175,147.8,1.26,0,0,20,2,5624.553477,114.692142,23.520119,0,-0.205225,-1.570796
2.22,2023-08-06 00:13:21,23.520094,114.69175,147.8,1.26,0,0,20,2,5624.553477,114.692142,23.520119,0,-0.205225,-1.570796
2.22,2023-08-06 00:13:21,23.520094,114.69175,147.8,1.26,0,0,20,2,5624.553477,114.692142,23.520119,0,-0.205225,-1.570796
2.22,2023-08-06 00:13:21,23.520094,114.69175,147.8,1.26,0,0,20,2,5624.553477,114.692142,23.520119,0,-0.205225,-1.570796
2.22,2023-08-06 00:13:21,23.520094,114.69175,147.8,1.26,0,0,20,2,5624.553477,114.692142,23.520119,0,-0.205225,-1.570796
2.22,2023-08-06 00:13:21,23.520094,114.69175,147.8,1.26,0,0,20,2,5624.553477,114.692142,23.520119,0,-0.205225,-1.570796
2.22,2023-08-06 00:13:21,23.520094,114.69175,147.8,1.26,0,0,20,2,5624.553477,114.692142,23.520119,0,-0.205225,-1.570796
2.22,2023-08-06 00:13:21,23.520094,114.69175,147.8,1.26,0,0,20,2,5624.553477,114.692142,23.520119,0,-0.205225,-1.570796
2.22,2023-08-06 00:13:21,23.520094,114.69175,147.8,1.26,0,0,20,2,5624.553477,114.692142,23.520119,0,-0.205225,-1.570796
2.22,2023-08-06 00:13:21,23.520094,114.69175,147.8,1.26,0,0,20,2,5624.553477,114.692142,23.520119,0,-0.205225,-1.570796
2.22,2023-08-06 00:13:21,23.520094,114.69175,147.8,1.26,0,0,20,2,5624.553477,114.692142,23.520119,0,-0.205225,-1.570796
2.22,2023-08-06 00:13:21,23.520094,114.69175,147.8,1.26,0,0,20,2,5624.553477,114.692142,23.520119,0,-0.205225,-1.570796
2.22,2023-08-06 00:13:21,23.520094,114.69175,147.8,1.26,0,0,20,2,5624.553477,114.692142,23.520119,0,-0.205225,-1.570796
2.22,2023-08-06 00:13:21,23.520094,114.69175,147.8,1.26,0,0,20,2,5624.553477,114.692142,23.520119,0,-0.205225,-1.570796
2.22,2023-08-06 00:13:21,23.520094,114.69175,147.8,1.26,0,0,20,2,5624.553477,114.692142,23.520119,0,-0.205225,-1.570796
2.22,2023-08-06 00:13:21,23.520094,114.69175,147.8,1.26,0,0,20,2,5624.553477,114.692142,23.520119,0,-0.205225,-1.570796
2.22,2023-08-06 00:13:21,23.520094,114.69175,147.8,1.26,0,0,20,2,5624.553477,114.692142,23.520119,0,-0.205225,-1.570796
2.22,2023-08-06 00:13:21,23.520094,114.69175,147.8,1.26,0,0,20,2,5624.553477,114.692142,23.520119,0,-0.205225,-1.570796
2.22,2023-08-06 00:13:21,23.520094,114.69175,147.8,1.26,0,0,20,2,5624.553477,114.692142,23.520119,0,-0.205225,-1.570796
2.22,2023-08-06 00:13:21,23.520094,114.69175,147.8,1.26,0,0,20,2,5624.553477,114.692142,23.520119,0,-0.205225,-1.570796
2.22,2023-08-06 00:13:21,23.520094,114.69175,147.8,1.26,0,0,20,2,5624.553477,114.692142,23.520119,0,-0.205225,-1.570796
2.22,2023-08-06 00:13:21,23.520094,114.69175,147.8,1.26,0,0,20,2,5624.553477,114.692142,23.520119,0,-0.205225,-1.570796
2.22,2023-08-06 00:13:21,23.520094,114.69175,147.8,1.26,0,0,20,2,5624.553477,114.692142,23.520119,0,-0.205225,-1.570796
2.22,2023-08-06 00:13:21,23.520094,114.69175,147.8,1.26,0,0,20,2,5624.553477,114.692142,23.520119,0,-0.205225,-1.570796
2.22,2023-08-06 00:13:21,23.520094,114.69175,147.8,1.26,0,0,20,2,5624.553477,114.692142,23.520119,0,-0.205225,-1.570796
2.22,2023-08-06 00:13:21,23.520094,114.69175,147.8,1.26,0,0,20,2,5624.553477,114.692142,23.520119,0,-0.205225,-1.570796
2.22,2023-08-06 00:13:21,23.520094,114.69175,147.8,1.26,0,0,20,2,5624.553477,114.692142,23.520119,0,-0.205225,-1.570796
2.22,2023-08-06 00:13:21,23.520094,114.69175,147.8,1.26,0,0,20,2,5624.553477,114.692142,23.520119,0,-0.205225,-1.570796
2.22,2023-08-06 00:13:21,23.520094,114.69175,147.8,1.26,0,0,20,2,5624.553477,114.692142,23.520119,0,-0.205225,-1.570796
2.22,2023-08-06 00:13:21,23.520094,114.69175,147.8,1.26,0,0,20,2,5624.553477,114.692142,23.520119,0,-0.205225,-1.570796
2.22,2023-08-06 00:13:21,23.520094,114.69175,147.8,1.26,0,0,20,2,5624.553477,114.692142,23.520119,0,-0.205225,-1.570796
2.22,2023-08-06 00:13:21,23.520094,114.69175,147.8,1.26,0,0,20,2,5624.553477,114.692142,23.520119,0,-0.205225,-1.570796
2.22,2023-08-06 00:13:21,23.520094,114.69175,147.8,1.26,0,0,20,2,5624.553477,114.692142,23.520119,0,-0.205225,-1.570796
2.22,2023-08-06 00:13:21,23.520094,114.69175,147.8,1.26,0,0,20,2,5624.553477,114.692142,23.520119,0,-0.205225,-1.570796
2.22,2023-08-06 00:13:21,23.520094,114.69175,147.8,1.26,0,0,20,2,5624.553477,114.692142,23.520119,0,-0.205225,-1.570796
2.22,2023-08-06 00:13:21,23.520094,114.69175,147.8,1.26,0,0,20,2,5624.553477,114.692142,23.520119,0,-0.205225,-1.570796
2.22,2023-08-06 00:13:21,23.520094,114.69175,147.8,1.26,0,0,20,2,5624.553477,114.692142,23.520119,0,-0.205225,-1.570796
2.22,2023-08-06 00:13:21,23.520094,114.69175,147.8,1.26,0,0,20,2,5624.553477,114.692142,23.520119,0,-0.205225,-1.570796
2.22,2023-08-06 00:13:21,23.520094,114.69175,147.8,1.26,0,0,20,2,5624.553477,114.692142,23.520119,0,-0.205225,-1.570796
2.22,2023-08-06 00:13:21,23.520094,114.69175,147.8,1.26,0,0,20,2,5624.553477,114.692142,23.520119,0,-0.205225,-1.570796
2.22,2023-08-06 00:13:21,23.520094,114.69175,147.8,1.26,0,0,20,2,5624.553477,114.692142,23.520119,0,-0.205225,-1.570796
2.22,2023-08-06 00:13:21,23.520094,114.69175,147.8,1.26,0,0,20,2,5624.553477,114.692142,23.520119,0,-0.205225,-1.570796
2.22,2023-08-06 00:13:21,23.520094,114.69175,147.8,1.26,0,0,20,2,5624.553477,114.692142,23.520119,0,-0.205225,-1.570796
2.22,2023-08-06 00:13:21,23.520094,114.69175,147.8,1.26,0,0,20,2,5624.553477,114.692142,23.520119,0,-0.205225,-1.570796
2.22,2023-08-06 00:13:21,23.520094,114.69175,147.8,1.26,0,0,20,2,5624.553477,114.692142,23.520119,0,-0.205225,-1.570796
2.22,2023-08-06 00:13:21,23.520094,114.69175,147.8,1.26,0,0,20,2,5624.553477,114.692142,23.520119,0,-0.205225,-1.570796
2.22,2023-08-06 00:13:21,23.520094,114.69175,147.8,1.26,0,0,20,2,5624.553477,114.692142,23.520119,0,-0.205225,-1.570796
2.22,2023-08-06 00:13:21,23.520094,114.69175,147.8,1.26,0,0,20,2,5624.553477,114.692142,23.520119,0,-0.205225,-1.570796
2.22,2023-08-06 00:13:21,23.520094,114.69175,147.8,1.26,0,0,20,2,5624.553477,114.692142,23.520119,0,-0.205225,-1.570796
2.22,2023-08-06 00:13:21,23.520094,114.69175,147.8,1.26,0,0,20,2,5624.553477,114.692142,23.520119,0,-0.205225,-1.570796
2.22,2023-08-06 00:13:21,23.520094,114.69175,147.8,1.26,0,0,20,2,5624.553477,114.692142,23.520119,0,-0.205225,-1.570796
2.22,2023-08-06 00:13:21,23.520094,114.69175,147.8,1.26,0,0,20,2,5624.553477,114.692142,23.520119,0,-0.205225,-1.570796
2.22,2023-08-06 00:13:21,23.520094,114.69175,147.8,1.26,0,0,20,2,5624.553477,114.692142,23.520119,0,-0.205225,-1.570796
2.22,2023-08-06 00:13:21,23.520094,114.69175,147.8,1.26,0,0,20,2,5624.553477,114.692142,23.520119,0,-0.205225,-1.570796
2.22,2023-08-06 00:13:21,23.520094,114.69175,147.8,1.26,0,0,20,2,5624.553477,114.692142,23.520119,0,-0.205225,-1.570796
2.22,2023-08-06 00:13:21,23.520094,114.69175,147.8,1.26,0,0,20,2,5624.553477,114.692142,23.520119,0,-0.205225,-1.570796
2.22,2023-08-06 00:13:21,23.520094,114.69175,147.8,1.26,0,0,20,2,5624.553477,114.692142,23.520119,0,-0.205225,-1.570796
2.22,2023-08-06 00:13:21,23.520094,114.69175,147.8,1.26,0,0,20,2,5624.553477,114.692142,23.520119,0,-0.205225,-1.570796
2.22,2023-08-06 00:13:21,23.520094,114.69175,147.8,1.26,0,0,20,2,5624.553477,114.692142,23.520119,0,-0.205225,-1.570796
2.22,2023-08-06 00:13:21,23.520094,114.69175,147.8,1.26,0,0,20,2,5624.553477,114.692142,23.520119,0,-0.205225,-1.570796
2.22,2023-08-06 00:13:21,23.520094,114.69175,147.8,1.26,0,0,20,2,5624.553477,114.692142,23.520119,0,-0.205225,-1.570796
2.22,2023-08-06 00:13:21,23.520094,114.69175,147.8,1.26,0,0,20,2,5624.553477,114.692142,23.520119,0,-0.205225,-1.570795
2.22,2023-08-06 00:13:21,23.520094,114.69175,147.8,1.26,0,0,20,2,5624.553477,114.692142,23.520119,0,-0.205225,-1.570794
2.22,2023-08-06 00:13:21,23.520094,114.69175,147.8,1.26,0,0,20,2,5624.553477,114.692142,23.520119,0,-0.205225,-1.570793
2.22,2023-08-06 00:13:21,23.520094,114.69175,147.8,1.26,0,0,20,2,5624.553476,114.692142,23.520119,0,-0.205225,-1.570791
2.22,2023-08-06 00:13:21,23.520094,114.69175,147.8,1.26,0,0,20,2,5624.553475,114.692142,23.520119,0,-0.205225,-1.570788
2.22,2023-08-06 00:13:21,23.520094,114.69175,147.8,1.26,0,0,20,2,5624.553474,114.692142,23.520119,0,-0.205225,-1.570785
2.22,2023-08-06 00:13:21,23.520094,114.69175,147.8,1.26,0,0,20,2,5624.553472,114.692142,23.520119,0,-0.205225,-1.570781
2.22,2023-08-06 00:13:21,23.520094,114.69175,147.8,1.26,0,0,20,2,5624.553469,114.692142,23.520119,0,-0.205225,-1.570777
2.22,2023-08-06 00:13:21,23.520094,114.69175,147.8,1.26,0,0,20,2,5624.553465,114.692142,23.520118,0,-0.205225,-1.570771
2.22,2023-08-06 00:13:21,23.520094,114.69175,147.8,1.26,0,0,20,2,5624.553459,114.692142,23.520118,0,-0.205225,-1.570765
2.22,2023-08-06 00:13:21,23.520094,114.69175,147.8,1.26,0,0,20,2,5624.553451,114.692142,23.520118,0,-0.205225,-1.570757
2.22,2023-08-06 00:13:21,23.520094,114.69175,147.8,1.26,0,0,20,2,5624.55344,114.692143,23.520117,0,-0.205225,-1.570748
2.22,2023-08-06 00:13:21,23.520094,114.69175,147.8,1.26,0,0,20,2,5624.553427,114.692143,23.520117,0,-0.205225,-1.570738
2.22,2023-08-06 00:13:21,23.520094,114.69175,147.8,1.26,0,0,20,2,5624.553409,114.692143,23.520116,0,-0.205225,-1.570727
2.22,2023-08-06 00:13:21,23.520094,114.69175,147.8,1.26,0,0,20,2,5624.553388,114.692143,23.520115,0,-0.205225,-1.570715
2.22,2023-08-06 00:13:21,23.520094,114.69175,147.8,1.26,0,0,20,2,5624.553361,114.692143,23.520115,0,-0.205225,-1.570701
2.22,2023-08-06 00:13:21,23.520094,114.69175,147.8,1.26,0,0,20,2,5624.553327,114.692143,23.520114,0,-0.205225,-1.570685
2.22,2023-08-06 00:13:21,23.520094,114.69175,147.8,1.26,0,0,20,2,5624.553287,114.692143,23.520113,0,-0.205225,-1.570668
2.22,2023-08-06 00:13:21,23.520094,114.69175,147.8,1.26,0,0,20,2,5624.553239,114.692144,23.520112,0,-0.205225,-1.570649
2.22,2023-08-06 00:13:21,23.520094,114.69175,147.8,1.26,0,0,20,2,5624.553181,114.692144,23.520111,0,-0.205225,-1.570629
2.22,2023-08-06 00:13:21,23.520094,114.69175,147.8,1.26,0,0,20,2,5624.553112,114.692144,23.52011,0,-0.205225,-1.570607
2.22,2023-08-06 00:13:21,23.520094,114.69175,147.8,1.26,0,0,20,2,5624.553031,114.692144,23.520109,0,-0.205225,-1.570582
2.22,2023-08-06 00:13:22,23.520094,114.69175,147.8,1.26,0,0,20,2,5624.552936,114.692145,23.520108,0,-0.205225,-1.570556
2.22,2023-08-06 00:13:23,23.520094,114.69175,147.8,1.26,0,0,20,2,5624.552826,114.692145,23.520106,0,-0.205225,-1.570528
2.22,2023-08-06 00:13:24,23.520094,114.69175,147.8,1.26,0,0,20,2,5624.552699,114.692145,23.520105,0,-0.205225,-1.570498
2.22,2023-08-06 00:13:25,23.520094,114.69175,147.8,1.26,0,0,20,2,5624.552552,114.692146,23.520103,0,-0.205225,-1.570465
2.22,2023-08-06 00:13:26,23.520094,114.69175,147.8,1.26,0,0,20,2,5624.552384,114.692146,23.520101,0,-0.205225,-1.57043
2.22,2023-08-06 00:13:27,23.520094,114.69175,147.8,1.26,0,0,20,2,5624.552193,114.692147,23.5201,0,-0.205225,-1.570393
2.22,2023-08-06 00:13:28,23.520094,114.69175,147.8,1.26,0,0,20,2,5624.551976,114.692147,23.520098,0,-0.205225,-1.570353
2.22,2023-08-06 00:13:29,23.520094,114.69175,147.8,1.26,0,0,20,2,5624.55173,114.692147,23.520096,0,-0.205225,-1.570311
2.22,2023-08-06 00:13:30,23.520094,114.69175,147.8,1.26,0,0,20,2,5624.551453,114.692148,23.520093,0,-0.205225,-1.570266
2.22,2023-08-06 00:13:31,23.520094,114.69175,147.8,1.26,0,0,20,2,5624.551142,114.692148,23.520091,0,-0.205225,-1.570219
2.22,2023-08-06 00:13:32,23.520094,114.69175,147.8,1.26,0,0,20,2,5624.550794,114.692149,23.520089,0,-0.205225,-1.570169
2.22,2023-08-06 00:13:33,23.520094,114.69175,147.8,1.26,0,0,20,2,5624.550406,114.69215,23.520086,0,-0.205225,-1.570116
2.22,2023-08-06 00:13:34,23.520094,114.69175,147.8,1.26,0,0,20,2,5624.549974,114.69215,23.520083,0,-0.205225,-1.57006
2.22,2023-08-06 00:13:35,23.520094,114.69175,147.8,1.26,0,0,20,2,5624.549495,114.692151,23.52008,0,-0.205225,-1.570001
2.22,2023-08-06 00:13:36,23.520094,114.69175,147.8,1.26,0,0,20,2,5624.548964,114.692152,23.520077,0,-0.205225,-1.569939
2.22,2023-08-06 00:13:37,23.520094,114.69175,147.8,1.26,0,0,20,2,5624.548379,114.692152,23.520074,0,-0.205225,-1.569874
2.22,2023-08-06 00:13:38,23.520094,114.69175,147.8,1.26,0,0,20,2,5624.547734,114.692153,23.520071,0,-0.205225,-1.569806
2.22,2023-08-06 00:13:39,23.520094,114.69175,147.8,1.26,0,0,20,2,5624.547026,114.692154,23.520067,0,-0.205225,-1.569734
2.22,2023-08-06 00:13:40,23.520094,114.69175,147.8,1.26,0,0,20,2,5624.546249,114.692155,23.520063,0,-0.205225,-1.569659
2.22,2023-08-06 00:13:41,23.520094,114.69175,147.8,1.26,0,0,20,2,5624.545399,114.692156,23.52006,0,-0.205225,-1.569581
2.22,2023-08-06 00:13:42,23.520094,114.69175,147.8,1.26,0,0,20,2,5624.544472,114.692157,23.520056,0,-0.205225,-1.569499
2.22,2023-08-06 00:13:43,23.520094,114.69175,147.8,1.26,0,0,20,2,5624.543461,114.692158,23.520051,0,-0.205225,-1.569413
2.22,2023-08-06 00:13:44,23.520094,114.69175,147.8,1.26,0,0,20,2,5624.542361,114.692159,23.520047,0,-0.205225,-1.569324
2.22,2023-08-06 00:13:45,23.520094,114.69175,147.8,1.26,0,0,20,2,5624.541166,114.69216,23.520042,0,-0.205225,-1.569231
2.22,2023-08-06 00:13:46,23.520094,114.69175,147.8,1.26,0,0,20,2,5624.539871,114.692161,23.520038,0,-0.205225,-1.569134
2.22,2023-08-06 00:13:47,23.520094,114.69175,147.8,1.26,0,0,20,2,5624.53847,114.692162,23.520033,0,-0.205225,-1.569033
2.22,2023-08-06 00:13:48,23.520094,114.69175,147.8,1.26,0,0,20,2,5624.536955,114.692163,23.520027,0,-0.205225,-1.568929
2.22,2023-08-06 00:13:49,23.520094,114.69175,147.8,1.26,0,0,20,2,5624.53532,114.692164,23.520022,0,-0.205225,-1.56882
2.22,2023-08-06 00:13:50,23.520094,114.69175,147.8,1.26,0,0,20,2,5624.533558,114.692165,23.520017,0,-0.205225,-1.568708
2.22,2023-08-06 00:13:51,23.520094,114.69175,147.8,1.26,0,0,20,2,5624.531662,114.692167,23.520011,0,-0.205225,-1.568592
2.22,2023-08-06 00:13:52,23.520094,114.69175,147.8,1.26,0,0,20,2,5624.529625,114.692168,23.520005,0,-0.205225,-1.568472
2.22,2023-08-06 00:13:53,23.520094,114.69175,147.8,1.26,0,0,20,2,5624.527438,114.692169,23.519999,0,-0.205225,-1.568348
2.22,2023-08-06 00:13:54,23.520094,114.69175,147.8,1.26,0,0,20,2,5624.525094,114.692171,23.519992,0,-0.205225,-1.56822
2.22,2023-08-06 00:13:55,23.520094,114.69175,147.8,1.26,0,0,20,2,5624.522585,114.692172,23.519986,0,-0.205225,-1.568088
2.22,2023-08-06 00:13:56,23.520094,114.69175,147.8,1.26,0,0,20,2,5624.519902,114.692174,23.519979,0,-0.205225,-1.567953
2.22,2023-08-06 00:13:57,23.520094,114.69175,147.8,1.26,0,0,20,2,5624.517036,114.692175,23.519972,0,-0.205225,-1.567813
2.22,2023-08-06 00:13:58,23.520094,114.69175,147.8,1.26,0,0,20,2,5624.513979,114.692177,23.519965,0,-0.205225,-1.56767
2.22,2023-08-06 00:13:59,23.520094,114.69175,147.8,1.26,0,0,20,2,5624.510721,114.692179,23.519958,0,-0.205225,-1.567523
2.22,2023-08-06 00:14:00,23.520094,114.69175,147.8,1.26,0,0,20,2,5624.507253,114.69218,23.519951,0,-0.205225,-1.567372
2.22,2023-08-06 00:14:01,23.520094,114.69175,147.8,1.26,0,0,20,2,5624.503565,114.692182,23.519943,0,-0.205225,-1.567217
2.22,2023-08-06 00:14:02,23.520094,114.69175,147.8,1.26,0,0,20,2,5624.499647,114.692184,23.519935,0,-0.205225,-1.567058
2.22,2023-08-06 00:14:03,23.520094,114.69175,147.8,1.26,0,0,20,2,5624.495489,114.692186,23.519927,0,-0.205225,-1.566896
2.22,2023-08-06 00:14:04,23.520094,114.69175,147.8,1.26,0,0,20,2,5624.491081,114.692188,23.519919,0,-0.205225,-1.566729
2.22,2023-08-06 00:14:05,23.520094,114.69175,147.8,1.26,0,0,20,2,5624.486411,114.69219,23.519911,0,-0.205225,-1.566559
2.22,2023-08-06 00:14:06,23.520094,114.69175,147.8,1.26,0,0,20,2,5624.48147,114.692191,23.519902,0,-0.205225,-1.566384
2.22,2023-08-06 00:14:07,23.520094,114.69175,147.8,1.26,0,0,20,2,5624.476245,114.692193,23.519893,0,-0.205225,-1.566206
2.22,2023-08-06 00:14:08,23.520094,114.69175,147.8,1.26,0,0,20,2,5624.470725,114.692196,23.519884,0,-0.205225,-1.566024
2.22,2023-08-06 00:14:09,23.520094,114.69175,147.8,1.26,0,0,20,2,5624.464899,114.692198,23.519875,0,-0.205225,-1.565838
2.22,2023-08-06 00:14:10,23.520094,114.69175,147.8,1.26,0,0,20,2,5624.458755,114.6922,23.519866,0,-0.205225,-1.565649
2.22,2023-08-06 00:14:11,23.520094,114.69175,147.8,1.26,0,0,20,2,5624.45228,114.692202,23.519856,0,-0.205225,-1.565455
2.22,2023-08-06 00:14:12,23.520094,114.69175,147.8,1.26,0,0,20,2,5624.445462,114.692204,23.519846,0,-0.205225,-1.565257
2.22,2023-08-06 00:14:13,23.520094,114.69175,147.8,1.26,0,0,20,2,5624.438289,114.692206,23.519837,0,-0.205225,-1.565056
2.22,2023-08-06 00:14:14,23.520094,114.69175,147.8,1.26,0,0,20,2,5624.430747,114.692209,23.519826,0,-0.205225,-1.564851
2.22,2023-08-06 00:14:15,23.520094,114.69175,147.8,1.26,0,0,20,2,5624.422823,114.692211,23.519816,0,-0.205225,-1.564642
2.22,2023-08-06 00:14:16,23.520094,114.69175,147.8,1.26,0,0,20,2,5624.414505,114.692213,23.519806,0,-0.205225,-1.564429
2.22,2023-08-06 00:14:17,23.520094,114.69175,147.8,1.26,0,0,20,2,5624.405777,114.692216,23.519795,0,-0.205225,-1.564212
2.22,2023-08-06 00:14:18,23.520094,114.69175,147.8,1.26,0,0,20,2,5624.396627,114.692218,23.519784,0,-0.205225,-1.563991
2.22,2023-08-06 00:14:19,23.520094,114.69175,147.8,1.26,0,0,20,2,5624.387039,114.692221,23.519773,0,-0.205225,-1.563767
2.22,2023-08-06 00:14:20,23.520094,114.69175,147.8,1.26,0,0,20,2,5624.377001,114.692223,23.519762,0,-0.205225,-1.563538
2.22,2023-08-06 00:14:21,23.520094,114.69175,147.8,1.26,0,0,20,2,5624.366496,114.692226,23.51975,0,-0.205225,-1.563306
2.22,2023-08-06 00:14:22,23.520094,114.69175,147.8,1.26,0,0,20,2,5624.355511,114.692229,23.519739,0,-0.205225,-1.563069
2.22,2023-08-06 00:14:23,23.520094,114.69175,147.8,1.26,0,0,20,2,5624.344029,114.692231,23.519727,0,-0.205225,-1.562829
2.22,2023-08-06 00:14:24,23.520094,114.69175,147.8,1.26,0,0,20,2,5624.332036,114.692234,23.519715,0,-0.205225,-1.562585
2.22,2023-08-06 00:14:25,23.520094,114.69175,147.8,1.26,0,0,20,2,5624.319516,114.692237,23.519702,0,-0.205225,-1.562338
2.22,2023-08-06 00:14:26,23.520094,114.69175,147.8,1.26,0,0,20,2,5624.306452,114.69224,23.51969,0,-0.205225,-1.562086
2.22,2023-08-06 00:14:27,23.520094,114.69175,147.8,1.26,0,0,20,2,5624.292829,114.692243,23.519677,0,-0.205225,-1.56183
2.22,2023-08-06 00:14:28,23.520094,114.69175,147.8,1.26,0,0,20,2,5624.278631,114.692246,23.519665,0,-0.205225,-1.561571
2.22,2023-08-06 00:14:29,23.520094,114.69175,147.8,1.26,0,0,20,2,5624.263841,114.692248,23.519652,0,-0.205225,-1.561307
2.22,2023-08-06 00:14:30,23.520094,114.69175,147.8,1.26,0,0,20,2,5624.248441,114.692251,23.519639,0,-0.205225,-1.56104
2.22,2023-08-06 00:14:31,23.520094,114.69175,147.8,1.26,0,0,20,2,5624.232415,114.692255,23.519625,0,-0.205225,-1.560769
2.22,2023-08-06 00:14:32,23.520094,114.69175,147.8,1.26,0,0,20,2,5624.215745,114.692258,23.519612,0,-0.205225,-1.560494
2.22,2023-08-06 00:14:33,23.520094,114.69175,147.8,1.26,0,0,20,2,5624.198414,114.692261,23.519598,0,-0.205225,-1.560215
2.22,2023-08-06 00:14:34,23.520094,114.69175,147.8,1.26,0,0,20,2,5624.180403,114.692264,23.519584,0,-0.205225,-1.559933
2.22,2023-08-06 00:14:35,23.520094,114.69175,147.8,1.26,0,0,20,2,5624.161695,114.692267,23.51957,0,-0.205225,-1.559646
2.22,2023-08-06 00:14:36,23.520094,114.69175,147.8,1.26,0,0,20,2,5624.142271,114.69227,23.519555,0,-0.205225,-1.559356
2.22,2023-08-06 00:14:37,23.520094,114.69175,147.8,1.26,0,0,20,2,5624.122112,114.692274,23.519541,0,-0.205225,-1.559061
2.22,2023-08-06 00:14:38,23.520094,114.69175,147.8,1.26,0,0,20,2,5624.101201,114.692277,23.519526,0,-0.205225,-1.558763
2.22,2023-08-06 00:14:39,23.520094,114.69175,147.8,1.26,0,0,20,2,5624.079516,114.69228,23.519511,0,-0.205225,-1.558461
2.22,2023-08-06 00:14:40,23.520094,114.69175,147.8,1.26,0,0,20,2,5624.05704,114.692284,23.519496,0,-0.205225,-1.558155
2.22,2023-08-06 00:14:41,23.520094,114.69175,147.8,1.26,0,0,20,2,5624.033752,114.692287,23.519481,0,-0.205225,-1.557845
2.22,2023-08-06 00:14:42,23.520094,114.69175,147.8,1.26,0,0,20,2,5624.009633,114.692291,23.519466,0,-0.205225,-1.557532
2.22,2023-08-06 00:14:43,23.520094,114.69175,147.8,1.26,0,0,20,2,5623.984662,114.692294,23.51945,0,-0.205225,-1.557214
2.22,2023-08-06 00:14:44,23.520094,114.69175,147.8,1.26,0,0,20,2,5623.958819,114.692298,23.519434,0,-0.205225,-1.556893
2.22,2023-08-06 00:14:45,23.520094,114.69175,147.8,1.26,0,0,20,2,5623.932084,114.692302,23.519418,0,-0.205225,-1.556567
2.22,2023-08-06 00:14:46,23.520094,114.69175,147.8,1.26,0,0,20,2,5623.904435,114.692305,23.519402,0,-0.205225,-1.556238
2.22,2023-08-06 00:14:47,23.520094,114.69175,147.8,1.26,0,0,20,2,5623.875852,114.692309,23.519385,0,-0.205225,-1.555905
2.22,2023-08-06 00:14:48,23.520094,114.69175,147.8,1.26,0,0,20,2,5623.846312,114.692313,23.519369,0,-0.205225,-1.555568
2.22,2023-08-06 00:14:49,23.520094,114.69175,147.8,1.26,0,0,20,2,5623.815795,114.692317,23.519352,0,-0.205225,-1.555227
2.22,2023-08-06 00:14:50,23.520094,114.69175,147.8,1.26,0,0,20,2,5623.784279,114.692321,23.519335,0,-0.205225,-1.554883
2.22,2023-08-06 00:14:51,23.520094,114.69175,147.8,1.26,0,0,20,2,5623.751741,114.692324,23.519318,0,-0.205225,-1.554534
2.22,2023-08-06 00:14:52,23.520094,114.69175,147.8,1.26,0,0,20,2,5623.718158,114.692328,23.5193,0,-0.205225,-1.554182
2.22,2023-08-06 00:14:53,23.520094,114.69175,147.8,1.26,0,0,20,2,5623.68351,114.692332,23.519283,0,-0.205225,-1.553825
2.22,2023-08-06 00:14:54,23.520094,114.69175,147.8,1.26,0,0,20,2,5623.647772,114.692336,23.519265,0,-0.205225,-1.553465
2.22,2023-08-06 00:14:55,23.520094,114.69175,147.8,1.26,0,0,20,2,5623.610921,114.692341,23.519247,0,-0.205225,-1.553101
2.22,2023-08-06 00:14:56,23.520094,114.69175,147.8,1.26,0,0,20,2,5623.572935,114.692345,23.519229,0,-0.205225,-1.552733
2.22,2023-08-06 00:14:57,23.520094,114.69175,147.8,1.26,0,0,20,2,5623.533788,114.692349,23.519211,0,-0.205225,-1.552362
2.22,2023-08-06 00:14:58,23.520094,114.69175,147.8,1.26,0,0,20,2,5623.493459,114.692353,23.519192,0,-0.205225,-1.551986
2.22,2023-08-06 00:14:59,23.520094,114.69175,147.8,1.26,0,0,20,2,5623.451922,114.692357,23.519173,0,-0.205225,-1.551606
2.22,2023-08-06 00:15:00,23.520094,114.69175,147.8,1.26,0,0,20,2,5623.409153,114.692362,23.519155,0,-0.205225,-1.551223
2.22,2023-08-06 00:15:01,23.520094,114.69175,147.8,1.26,0,0,20,2,5623.365128,114.692366,23.519136,0,-0.205225,-1.550836
2.22,2023-08-06 00:15:02,23.520094,114.69175,147.8,1.26,0,0,20,2,5623.319821,114.69237,23.519116,0,-0.205225,-1.550445
2.22,2023-08-06 00:15:03,23.520094,114.69175,147.8,1.26,0,0,20,2,5623.273208,114.692375,23.519097,0,-0.205225,-1.55005
2.22,2023-08-06 00:15:04,23.520094,114.69175,147.8,1.26,0,0,20,2,5623.225264,114.692379,23.519077,0,-0.205225,-1.549651
2.22,2023-08-06 00:15:05,23.520094,114.69175,147.8,1.26,0,0,20,2,5623.175962,114.692384,23.519057,0,-0.205225,-1.549248
2.22,2023-08-06 00:15:06,23.520094,114.69175,147.8,1.26,0,0,20,2,5623.125276,114.692388,23.519037,0,-0.205225,-1.548841
2.22,2023-08-06 00:15:07,23.520094,114.69175,147.8,1.26,0,0,20,2,5623.073182,114.692393,23.519017,0,-0.205225,-1.548431
2.22,2023-08-06 00:15:08,23.520094,114.69175,147.8,1.26,0,0,20,2,5623.019652,114.692398,23.518997,0,-0.205225,-1.548017
2.22,2023-08-06 00:15:09,23.520094,114.69175,147.8,1.26,0,0,20,2,5622.964659,114.692402,23.518976,0,-0.205225,-1.547598
2.22,2023-08-06 00:15:10,23.520094,114.69175,147.8,1.26,0,0,20,2,5622.908178,114.692407,23.518955,0,-0.205225,-1.547176
2.22,2023-08-06 00:15:11,23.520094,114.69175,147.8,1.26,0,0,20,2,5622.850181,114.692412,23.518934,0,-0.205225,-1.54675
2.22,2023-08-06 00:15:12,23.520094,114.69175,147.8,1.26,0,0,20,2,5622.79064,114.692417,23.518913,0,-0.205225,-1.54632
2.22,2023-08-06 00:15:13,23.520094,114.69175,147.8,1.26,0,0,20,2,5622.729528,114.692422,23.518892,0,-0.205225,-1.545887
2.22,2023-08-06 00:15:14,23.520094,114.69175,147.8,1.26,0,0,20,2,5622.666817,114.692426,23.51887,0,-0.205225,-1.545449
2.22,2023-08-06 00:15:15,23.520094,114.69175,147.8,1.26,0,0,20,2,5622.602479,114.692431,23.518848,0,-0.205225,-1.545007
2.22,2023-08-06 00:15:16,23.520094,114.69175,147.8,1.26,0,0,20,2,5622.536486,114.692436,23.518826,0,-0.205225,-1.544562
2.22,2023-08-06 00:15:17,23.520094,114.69175,147.8,1.26,0,0,20,2,5622.46881,114.692441,23.518804,0,-0.205225,-1.544113
2.22,2023-08-06 00:15:18,23.520094,114.69175,147.8,1.26,0,0,20,2,5622.39942,114.692446,23.518782,0,-0.205225,-1.54366
2.22,2023-08-06 00:15:19,23.520094,114.69175,147.8,1.26,0,0,20,2,5622.328289,114.692452,23.518759,0,-0.205225,-1.543203
2.22,2023-08-06 00:15:20,23.520094,114.69175,147.8,1.26,0,0,20,2,5622.255387,114.692457,23.518737,0,-0.205225,-1.542742
2.22,2023-08-06 00:15:21,23.520094,114.69175,147.8,1.26,0,0,20,2,5622.180684,114.692462,23.518714,0,-0.205225,-1.542277
2.22,2023-08-06 00:15:22,23.520094,114.69175,147.8,1.26,0,0,20,2,5622.104152,114.692467,23.518691,0,-0.205225,-1.541809
2.22,2023-08-06 00:15:23,23.520094,114.69175,147.8,1.26,0,0,20,2,5622.025758,114.692473,23.518667,0,-0.205225,-1.541336
2.22,2023-08-06 00:15:24,23.520094,114.69175,147.8,1.26,0,0,20,2,5621.945474,114.692478,23.518644,0,-0.205225,-1.54086
2.22,2023-08-06 00:15:25,23.520094,114.69175,147.8,1.26,0,0,20,2,5621.863269,114.692483,23.51862,0,-0.205225,-1.54038
2.22,2023-08-06 00:15:26,23.520094,114.69175,147.8,1.26,0,0,20,2,5621.779111,114.692489,23.518596,0,-0.205225,-1.539896
2.22,2023-08-06 00:15:27,23.520094,114.69175,147.8,1.26,0,0,20,2,5621.692971,114.692494,23.518572,0,-0.205225,-1.539408
2.22,2023-08-06 00:15:28,23.520094,114.69175,147.8,1.26,0,0,20,2,5621.604816,114.6925,23.518548,0,-0.205225,-1.538916
2.22,2023-08-06 00:15:29,23.520094,114.69175,147.8,1.26,0,0,20,2,5621.514615,114.692505,23.518524,0,-0.205225,-1.53842
2.22,2023-08-06 00:15:30,23.520094,114.69175,147.8,1.26,0,0,20,2,5621.422337,114.692511,23.518499,0,-0.205225,-1.537921
2.22,2023-08-06 00:15:31,23.520094,114.69175,147.8,1.26,0,0,20,2,5621.327949,114.692517,23.518474,0,-0.205225,-1.537417
2.22,2023-08-06 00:15:32,23.520094,114.69175,147.8,1.26,0,0,20,2,5621.231418,114.692522,23.518449,0,-0.205225,-1.53691
2.22,2023-08-06 00:15:33,23.520094,114.69175,147.8,1.26,0,0,20,2,5621.132714,114.692528,23.518424,0,-0.205225,-1.536399
2.22,2023-08-06 00:15:34,23.520094,114.69175,147.8,1.26,0,0,20,2,5621.031801,114.692534,23.518399,0,-0.205225,-1.535884
2.22,2023-08-06 00:15:35,23.520094,114.69175,147.8,1.26,0,0,20,2,5620.928649,114.69254,23.518373,0,-0.205225,-1.535365
2.22,2023-08-06 00:15:36,23.520094,114.69175,147.8,1.26,0,0,20,2,5620.823223,114.692545,23.518347,0,-0.205225,-1.534842
2.22,2023-08-06 00:15:37,23.520094,114.69175,147.8,1.26,0,0,20,2,5620.71549,114.692551,23.518321,0,-0.205225,-1.534315
2.22,2023-08-06 00:15:38,23.520094,114.69175,147.8,1.26,0,0,20,2,5620.605416,114.692557,23.518295,0,-0.205225,-1.533785
2.22,2023-08-06 00:15:39,23.520094,114.69175,147.8,1.26,0,0,20,2,5620.492967,114.692563,23.518269,0,-0.205225,-1.53325
2.22,2023-08-06 00:15:40,23.520094,114.69175,147.8,1.26,0,0,20,2,5620.378109,114.692569,23.518242,0,-0.205225,-1.532712
2.22,2023-08-06 00:15:41,23.520094,114.69175,147.8,1.26,0,0,20,2,5620.260807,114.692575,23.518216,0,-0.205225,-1.53217
2.22,2023-08-06 00:15:42,23.520094,114.69175,147.8,1.26,0,0,20,2,5620.141028,114.692581,23.518189,0,-0.205225,-1.531624
2.22,2023-08-06 00:15:43,23.520094,114.69175,147.8,1.26,0,0,20,2,5620.018734,114.692588,23.518162,0,-0.205225,-1.531074
2.22,2023-08-06 00:15:44,23.520094,114.69175,147.8,1.26,0,0,20,2,5619.893892,114.692594,23.518134,0,-0.205225,-1.53052
2.22,2023-08-06 00:15:45,23.520094,114.69175,147.8,1.26,0,0,20,2,5619.766466,114.6926,23.518107,0,-0.205225,-1.529962
2.22,2023-08-06 00:15:46,23.520094,114.69175,147.8,1.26,0,0,20,2,5619.636421,114.692606,23.518079,0,-0.205225,-1.529401
2.22,2023-08-06 00:15:47,23.520094,114.69175,147.8,1.26,0,0,20,2,5619.503719,114.692613,23.518051,0,-0.205225,-1.528836
2.22,2023-08-06 00:15:48,23.520094,114.69175,147.8,1.26,0,0,20,2,5619.368325,114.692619,23.518023,0,-0.205225,-1.528266
2.22,2023-08-06 00:15:49,23.520094,114.69175,147.8,1.26,0,0,20,2,5619.230203,114.692626,23.517995,0,-0.205225,-1.527693
2.22,2023-08-06 00:15:50,23.520094,114.69175,147.8,1.26,0,0,20,2,5619.089316,114.692632,23.517967,0,-0.205225,-1.527116
2.22,2023-08-06 00:15:51,23.520094,114.69175,147.8,1.26,0,0,20,2,5618.945627,114.692639,23.517938,0,-0.205225,-1.526535
2.22,2023-08-06 00:15:52,23.520094,114.69175,147.8,1.26,0,0,20,2,5618.799098,114.692645,23.517909,0,-0.205225,-1.52595
2.22,2023-08-06 00:15:53,23.520094,114.69175,147.8,1.26,0,0,20,2,5618.649692,114.692652,23.51788,0,-0.205225,-1.525362
2.22,2023-08-06 00:15:54,23.520094,114.69175,147.8,1.26,0,0,20,2,5618.497372,114.692658,23.517851,0,-0.205225,-1.524769
2.22,2023-08-06 00:15:55,23.520094,114.69175,147.8,1.26,0,0,20,2,5618.3421,114.692665,23.517822,0,-0.205225,-1.524173
2.22,2023-08-06 00:15:56,23.520094,114.69175,147.8,1.26,0,0,20,2,5618.183837,114.692672,23.517792,0,-0.205225,-1.523573
2.22,2023-08-06 00:15:57,23.520094,114.69175,147.8,1.26,0,0,20,2,5618.022544,114.692679,23.517763,0,-0.205225,-1.522969
2.22,2023-08-06 00:15:58,23.520094,114.69175,147.8,1.26,0,0,20,2,5617.858184,114.692685,23.517733,0,-0.205225,-1.522361
2.22,2023-08-06 00:15:59,23.520094,114.69175,147.8,1.26,0,0,20,2,5617.690718,114.692692,23.517702,0,-0.205225,-1.521749
2.22,2023-08-06 00:16:00,23.520094,114.69175,147.8,1.26,0,0,20,2,5617.520105,114.692699,23.517672,0,-0.205225,-1.521133
2.22,2023-08-06 00:16:01,23.520094,114.69175,147.8,1.26,0,0,20,2,5617.346308,114.692706,23.517642,0,-0.205225,-1.520513
2.22,2023-08-06 00:16:02,23.520094,114.69175,147.8,1.26,0,0,20,2,5617.169285,114.692713,23.517611,0,-0.205225,-1.51989
2.22,2023-08-06 00:16:03,23.520094,114.69175,147.8,1.26,0,0,20,2,5616.988997,114.69272,23.51758,0,-0.205225,-1.519263
2.22,2023-08-06 00:16:04,23.520094,114.69175,147.8,1.26,0,0,20,2,5616.805405,114.692727,23.517549,0,-0.205225,-1.518631
2.22,2023-08-06 00:16:05,23.520094,114.69175,147.8,1.26,0,0,20,2,5616.618467,114.692734,23.517518,0,-0.205225,-1.517996
2.22,2023-08-06 00:16:06,23.520094,114.69175,147.8,1.26,0,0,20,2,5616.428143,114.692741,23.517486,0,-0.205225,-1.517357
2.22,2023-08-06 00:16:07,23.520094,114.69175,147.8,1.26,0,0,20,2,5616.234392,114.692749,23.517455,0,-0.205225,-1.516714
2.22,2023-08-06 00:16:08,23.520094,114.69175,147.8,1.26,0,0,20,2,5616.037174,114.692756,23.517423,0,-0.205225,-1.516068
2.22,2023-08-06 00:16:09,23.520094,114.69175,147.8,1.26,0,0,20,2,5615.836446,114.692763,23.517391,0,-0.205225,-1.515417
2.22,2023-08-06 00:16:10,23.520094,114.69175,147.8,1.26,0,0,20,2,5615.632166,114.69277,23.517359,0,-0.205225,-1.514763
2.22,2023-08-06 00:16:11,23.520094,114.69175,147.8,1.26,0,0,20,2,5615.424294,114.692778,23.517326,0,-0.205225,-1.514104
2.22,2023-08-06 00:16:12,23.520094,114.69175,147.8,1.26,0,0,20,2,5615.212788,114.692785,23.517294,0,-0.205225,-1.513442
2.22,2023-08-06 00:16:13,23.520094,114.69175,147.8,1.26,0,0,20,2,5614.997603,114.692793,23.517261,0,-0.205225,-1.512776
2.22,2023-08-06 00:16:14,23.520094,114.69175,147.8,1.26,0,0,20,2,5614.778699,114.6928,23.517228,0,-0.205225,-1.512106
2.22,2023-08-06 00:16:15,23.520094,114.69175,147.8,1.26,0,0,20,2,5614.556032,114.692808,23.517195,0,-0.205225,-1.511432
2.22,2023-08-06 00:16:16,23.520094,114.69175,147.8,1.26,0,0,20,2,5614.329559,114.692815,23.517161,0,-0.205225,-1.510755
2.22,2023-08-06 00:16:17,23.520094,114.69175,147.8,1.26,0,0,20,2,5614.099237,114.692823,23.517128,0,-0.205225,-1.510073
2.22,2023-08-06 00:16:18,23.520094,114.69175,147.8,1.26,0,0,20,2,5613.865023,114.692831,23.517094,0,-0.205225,-1.509388
2.22,2023-08-06 00:16:19,23.520094,114.69175,147.8,1.26,0,0,20,2,5613.626872,114.692838,23.51706,0,-0.205225,-1.508698
2.22,2023-08-06 00:16:20,23.520094,114.69175,147.8,1.26,0,0,20,2,5613.38474,114.692846,23.517026,0,-0.205225,-1.508005
2.22,2023-08-06 00:16:21,23.520094,114.69175,147.8,1.26,0,0,20,2,5613.138583,114.692854,23.516992,0,-0.205225,-1.507308
2.22,2023-08-06 00:16:22,23.520094,114.69175,147.8,1.26,0,0,20,2,5612.888357,114.692862,23.516957,0,-0.205225,-1.506607
2.22,2023-08-06 00:16:23,23.520094,114.69175,147.8,1.26,0,0,20,2,5612.634017,114.69287,23.516923,0,-0.205225,-1.505902
2.22,2023-08-06 00:16:24,23.520094,114.69175,147.8,1.26,0,0,20,2,5612.375518,114.692878,23.516888,0,-0.205225,-1.505194
2.22,2023-08-06 00:16:25,23.520094,114.69175,147.8,1.26,0,0,20,2,5612.112814,114.692886,23.516853,0,-0.205225,-1.504481
2.22,2023-08-06 00:16:26,23.520094,114.69175,147.8,1.26,0,0,20,2,5611.84586,114.692894,23.516817,0,-0.205225,-1.503765
2.22,2023-08-06 00:16:27,23.520094,114.69175,147.8,1.26,0,0,20,2,5611.57461,114.692902,23.516782,0,-0.205225,-1.503044
2.22,2023-08-06 00:16:28,23.520094,114.69175,147.8,1.26,0,0,20,2,5611.299019,114.69291,23.516746,0,-0.205225,-1.50232
2.22,2023-08-06 00:16:29,23.520094,114.69175,147.8,1.26,0,0,20,2,5611.019039,114.692918,23.516711,0,-0.205225,-1.501592
2.22,2023-08-06 00:16:30,23.520094,114.69175,147.8,1.26,0,0,20,2,5610.734626,114.692926,23.516675,0,-0.205225,-1.50086
2.22,2023-08-06 00:16:31,23.520094,114.69175,147.8,1.26,0,0,20,2,5610.445731,114.692934,23.516638,0,-0.205225,-1.500124
2.22,2023-08-06 00:16:32,23.520094,114.69175,147.8,1.26,0,0,20,2,5610.152308,114.692943,23.516602,0,-0.205225,-1.499385
2.22,2023-08-06 00:16:33,23.520094,114.69175,147.8,1.26,0,0,20,2,5609.854309,114.692951,23.516565,0,-0.205225,-1.498641
2.22,2023-08-06 00:16:34,23.520094,114.69175,147.8,1.26,0,0,20,2,5609.551688,114.692959,23.516529,0,-0.205225,-1.497894
2.22,2023-08-06 00:16:35,23.520094,114.69175,147.8,1.26,0,0,20,2,5609.244396,114.692968,23.516492,0,-0.205225,-1.497143
2.22,2023-08-06 00:16:36,23.520094,114.69175,147.8,1.26,0,0,20,2,5608.932387,114.692976,23.516455,0,-0.205225,-1.496388
2.22,2023-08-06 00:16:37,23.520094,114.69175,147.8,1.26,0,0,20,2,5608.61561,114.692985,23.516417,0,-0.205225,-1.495629
2.22,2023-08-06 00:16:38,23.520094,114.69175,147.8,1.26,0,0,20,2,5608.294019,114.692993,23.51638,0,-0.205225,-1.494866
2.22,2023-08-06 00:16:39,23.520094,114.69175,147.8,1.26,0,0,20,2,5607.967563,114.693002,23.516342,0,-0.205225,-1.494099
2.22,2023-08-06 00:16:40,23.520094,114.69175,147.8,1.26,0,0,20,2,5607.636196,114.69301,23.516304,0,-0.205225,-1.493328
2.22,2023-08-06 00:16:41,23.520094,114.69175,147.8,1.26,0,0,20,2,5607.299867,114.693019,23.516266,0,-0.205225,-1.492554
2.22,2023-08-06 00:16:42,23.520094,114.69175,147.8,1.26,0,0,20,2,5606.958527,114.693028,23.516228,0,-0.205225,-1.491775
2.22,2023-08-06 00:16:43,23.520094,114.69175,147.8,1.26,0,0,20,2,5606.612126,114.693037,23.516189,0,-0.205225,-1.490993
2.22,2023-08-06 00:16:44,23.520094,114.69175,147.8,1.26,0,0,20,2,5606.260615,114.693045,23.516151,0,-0.205225,-1.490207
2.22,2023-08-06 00:16:45,23.520094,114.69175,147.8,1.26,0,0,20,2,5605.903944,114.693054,23.516112,0,-0.205225,-1.489417
2.22,2023-08-06 00:16:46,23.520094,114.69175,147.8,1.26,0,0,20,2,5605.542061,114.693063,23.516073,0,-0.205225,-1.488623
2.22,2023-08-06 00:16:47,23.520094,114.69175,147.8,1.26,0,0,20,2,5605.174917,114.693072,23.516034,0,-0.205225,-1.487826
2.22,2023-08-06 00:16:48,23.520094,114.69175,147.8,1.26,0,0,20,2,5604.802461,114.693081,23.515994,0,-0.205225,-1.487024
2.22,2023-08-06 00:16:49,23.520094,114.69175,147.8,1.26,0,0,20,2,5604.424642,114.69309,23.515955,0,-0.205225,-1.486219
2.22,2023-08-06 00:16:50,23.520094,114.69175,147.8,1.26,0,0,20,2,5604.041409,114.693099,23.515915,0,-0.205225,-1.485409
2.22,2023-08-06 00:16:51,23.520094,114.69175,147.8,1.26,0,0,20,2,5603.652709,114.693108,23.515875,0,-0.205225,-1.484596
2.22,2023-08-06 00:16:52,23.520094,114.69175,147.8,1.26,0,0,20,2,5603.258491,114.693117,23.515835,0,-0.205225,-1.483779
2.22,2023-08-06 00:16:53,23.520094,114.69175,147.8,1.26,0,0,20,2,5602.858704,114.693126,23.515795,0,-0.205225,-1.482958
2.22,2023-08-06 00:16:54,23.520094,114.69175,147.8,1.26,0,0,20,2,5602.453295,114.693136,23.515754,0,-0.205225,-1.482133
2.22,2023-08-06 00:16:55,23.520094,114.69175,147.8,1.26,0,0,20,2,5602.042211,114.693145,23.515714,0,-0.205225,-1.481304
2.22,2023-08-06 00:16:56,23.520094,114.69175,147.8,1.26,0,0,20,2,5601.6254,114.693154,23.515673,0,-0.205225,-1.480472
2.22,2023-08-06 00:16:57,23.520094,114.69175,147.8,1.26,0,0,20,2,5601.202809,114.693164,23.515632,0,-0.205225,-1.479635
2.22,2023-08-06 00:16:58,23.520094,114.69175,147.8,1.26,0,0,20,2,5600.774385,114.693173,23.51559,0,-0.205225,-1.478795
2.22,2023-08-06 00:16:59,23.520094,114.69175,147.8,1.26,0,0,20,2,5600.340074,114.693182,23.515549,0,-0.205225,-1.477951
2.22,2023-08-06 00:17:00,23.520094,114.69175,147.8,1.26,0,0,20,2,5599.899823,114.693192,23.515507,0,-0.205225,-1.477103
2.22,2023-08-06 00:17:01,23.520094,114.69175,147.8,1.26,0,0,20,2,5599.453577,114.693201,23.515465,0,-0.205225,-1.476251
2.22,2023-08-06 00:17:02,23.520094,114.69175,147.8,1.26,0,0,20,2,5599.001283,114.693211,23.515423,0,-0.205225,-1.475395
2.22,2023-08-06 00:17:03,23.520094,114.69175,147.8,1.26,0,0,20,2,5598.542886,114.693221,23.515381,0,-0.205225,-1.474536
2.22,2023-08-06 00:17:04,23.520094,114.69175,147.8,1.26,0,0,20,2,5598.078332,114.69323,23.515339,0,-0.205225,-1.473672
2.22,2023-08-06 00:17:05,23.520094,114.69175,147.8,1.26,0,0,20,2,5597.607566,114.69324,23.515296,0,-0.205225,-1.472805
2.22,2023-08-06 00:17:06,23.520094,114.69175,147.8,1.26,0,0,20,2,5597.130533,114.69325,23.515254,0,-0.205225,-1.471933
2.22,2023-08-06 00:17:07,23.520094,114.69175,147.8,1.26,0,0,20,2,5596.647177,114.693259,23.515211,0,-0.205225,-1.471058
2.22,2023-08-06 00:17:08,23.520094,114.69175,147.8,1.26,0,0,20,2,5596.157443,114.693269,23.515168,0,-0.205225,-1.470179
2.22,2023-08-06 00:17:09,23.520094,114.69175,147.8,1.26,0,0,20,2,5595.661275,114.693279,23.515124,0,-0.205225,-1.469296
2.22,2023-08-06 00:17:10,23.520094,114.69175,147.8,1.26,0,0,20,2,5595.158618,114.693289,23.515081,0,-0.205225,-1.468409
2.22,2023-08-06 00:17:11,23.520094,114.69175,147.8,1.26,0,0,20,2,5594.649414,114.693299,23.515037,0,-0.205225,-1.467519
2.22,2023-08-06 00:17:12,23.520094,114.69175,147.8,1.26,0,0,20,2,5594.133608,114.693309,23.514993,0,-0.205225,-1.466624
2.22,2023-08-06 00:17:13,23.520094,114.69175,147.8,1.26,0,0,20,2,5593.611143,114.693319,23.514949,0,-0.205225,-1.465726
2.22,2023-08-06 00:17:14,23.520094,114.69175,147.8,1.26,0,0,20,2,5593.081961,114.693329,23.514905,0,-0.205225,-1.464824
2.22,2023-08-06 00:17:15,23.520094,114.69175,147.8,1.26,0,0,20,2,5592.546006,114.693339,23.51486,0,-0.205225,-1.463918
2.22,2023-08-06 00:17:16,23.520094,114.69175,147.8,1.26,0,0,20,2,5592.003221,114.693349,23.514816,0,-0.205225,-1.463008
2.22,2023-08-06 00:17:17,23.520094,114.69175,147.8,1.26,0,0,20,2,5591.453547,114.693359,23.514771,0,-0.205225,-1.462094
2.22,2023-08-06 00:17:18,23.520094,114.69175,147.8,1.26,0,0,20,2,5590.896927,114.69337,23.514726,0,-0.205225,-1.461176
2.22,2023-08-06 00:17:19,23.520094,114.69175,147.8,1.26,0,0,20,2,5590.333303,114.69338,23.514681,0,-0.205225,-1.460254
2.22,2023-08-06 00:17:20,23.520094,114.69175,147.8,1.26,0,0,20,2,5589.762615,114.69339,23.514636,0,-0.205225,-1.459329
2.22,2023-08-06 00:17:21,23.520094,114.69175,147.8,1.26,0,0,20,2,5589.184807,114.693401,23.51459,0,-0.205225,-1.4584
2.22,2023-08-06 00:17:22,23.520094,114.69175,147.8,1.26,0,0,20,2,5588.599819,114.693411,23.514544,0,-0.205225,-1.457466
2.22,2023-08-06 00:17:23,23.520094,114.69175,147.8,1.26,0,0,20,2,5588.007592,114.693422,23.514498,0,-0.205225,-1.456529
2.22,2023-08-06 00:17:24,23.520094,114.69175,147.8,1.26,0,0,20,2,5587.408066,114.693432,23.514452,0,-0.205225,-1.455588
2.22,2023-08-06 00:17:25,23.520094,114.69175,147.8,1.26,0,0,20,2,5586.801183,114.693443,23.514406,0,-0.205225,-1.454644
2.22,2023-08-06 00:17:26,23.520094,114.69175,147.8,1.26,0,0,20,2,5586.186882,114.693453,23.51436,0,-0.205225,-1.453695
2.22,2023-08-06 00:17:27,23.520094,114.69175,147.8,1.26,0,0,20,2,5585.565104,114.693464,23.514313,0,-0.205225,-1.452742
2.22,2023-08-06 00:17:28,23.520094,114.69175,147.8,1.26,0,0,20,2,5584.935789,114.693474,23.514266,0,-0.205225,-1.451786
2.22,2023-08-06 00:17:29,23.520094,114.69175,147.8,1.26,0,0,20,2,5584.298875,114.693485,23.514219,0,-0.205225,-1.450826
